[
  {
    "nameZh": "上環城皇街公廁",
    "nameEn": "",
    "districtZh": "上環",
    "districtEn": "",
    "addressZh": "上環城皇街",
    "addressEn": "",
    "latitude": 22.2838229,
    "longitude": 114.1557084,
    "openingHours": "24 小時開放的公廁",
    "accessible": false,
    "babyCare": false,
    "cleanlinessScore": 3,
    "tags": [],
    "sourceId": 34
  },
  {
    "nameZh": "上環磅巷公廁",
    "nameEn": "",
    "districtZh": "上環",
    "districtEn": "",
    "addressZh": "上環磅巷",
    "addressEn": "",
    "latitude": 22.2865158,
    "longitude": 114.150208,
    "openingHours": "24 小時開放的公廁",
    "accessible": false,
    "babyCare": false,
    "cleanlinessScore": 3,
    "tags": [],
    "sourceId": 26
  },
  {
    "nameZh": "上環林士街公廁",
    "nameEn": "",
    "districtZh": "上環",
    "districtEn": "",
    "addressZh": "上環林士街多層停車場地下",
    "addressEn": "",
    "latitude": 22.2879051,
    "longitude": 114.1494271,
    "openingHours": "24 小時開放的公廁",
    "accessible": false,
    "babyCare": false,
    "cleanlinessScore": 3,
    "tags": [],
    "sourceId": 23
  },
  {
    "nameZh": "上環樓梯街公廁",
    "nameEn": "",
    "districtZh": "上環",
    "districtEn": "",
    "addressZh": "上環樓梯街",
    "addressEn": "",
    "latitude": 22.2865158,
    "longitude": 114.150208,
    "openingHours": "24 小時開放的公廁",
    "accessible": false,
    "babyCare": false,
    "cleanlinessScore": 3,
    "tags": [],
    "sourceId": 18
  },
  {
    "nameZh": "上環樂古道公廁",
    "nameEn": "",
    "districtZh": "上環",
    "districtEn": "",
    "addressZh": "上環樂古道21號",
    "addressEn": "",
    "latitude": 22.2865158,
    "longitude": 114.150208,
    "openingHours": "24 小時開放的公廁",
    "accessible": false,
    "babyCare": false,
    "cleanlinessScore": 3,
    "tags": [],
    "sourceId": 16
  },
  {
    "nameZh": "上環港澳碼頭公廁",
    "nameEn": "",
    "districtZh": "上環",
    "districtEn": "",
    "addressZh": "上環港澳碼頭巴士總站",
    "addressEn": "",
    "latitude": 22.2865158,
    "longitude": 114.150208,
    "openingHours": "24 小時開放的公廁",
    "accessible": false,
    "babyCare": false,
    "cleanlinessScore": 3,
    "tags": [],
    "sourceId": 14
  },
  {
    "nameZh": "上環賢居里公廁",
    "nameEn": "",
    "districtZh": "上環",
    "districtEn": "",
    "addressZh": "上環賢居里8號",
    "addressEn": "",
    "latitude": 22.2865158,
    "longitude": 114.150208,
    "openingHours": "24 小時開放的公廁",
    "accessible": false,
    "babyCare": false,
    "cleanlinessScore": 3,
    "tags": [],
    "sourceId": 3
  },
  {
    "nameZh": "天后大坑道公廁",
    "nameEn": "",
    "districtZh": "大坑",
    "districtEn": "",
    "addressZh": "天后大坑道",
    "addressEn": "",
    "latitude": 22.2799275,
    "longitude": 114.189617,
    "openingHours": "24 小時開放的公廁",
    "accessible": false,
    "babyCare": false,
    "cleanlinessScore": 3,
    "tags": [],
    "sourceId": 504
  },
  {
    "nameZh": "大坑蓮花宮蓮花街公廁",
    "nameEn": "",
    "districtZh": "大坑",
    "districtEn": "",
    "addressZh": "大坑蓮花宮蓮花街",
    "addressEn": "",
    "latitude": 22.4217148,
    "longitude": 114.0937546,
    "openingHours": "24 小時開放的公廁",
    "accessible": false,
    "babyCare": false,
    "cleanlinessScore": 3,
    "tags": [],
    "sourceId": 491
  },
  {
    "nameZh": "山頂舊山頂道公廁",
    "nameEn": "",
    "districtZh": "山頂",
    "districtEn": "",
    "addressZh": "山頂舊山頂道27554號",
    "addressEn": "",
    "latitude": 22.2776022,
    "longitude": 114.1564006,
    "openingHours": "24 小時開放的公廁",
    "accessible": false,
    "babyCare": false,
    "cleanlinessScore": 3,
    "tags": [],
    "sourceId": 28
  },
  {
    "nameZh": "山頂凌霄閣公廁",
    "nameEn": "",
    "districtZh": "山頂",
    "districtEn": "",
    "addressZh": "山頂凌霄閣第二層地庫",
    "addressEn": "",
    "latitude": 22.271123,
    "longitude": 114.1501414,
    "openingHours": "24 小時開放的公廁",
    "accessible": false,
    "babyCare": false,
    "cleanlinessScore": 3,
    "tags": [],
    "sourceId": 27
  },
  {
    "nameZh": "中環天星碼頭公廁",
    "nameEn": "",
    "districtZh": "中環",
    "districtEn": "",
    "addressZh": "中環天星碼頭多層停車場",
    "addressEn": "",
    "latitude": 22.2870418,
    "longitude": 114.1611903,
    "openingHours": "24 小時開放的公廁",
    "accessible": false,
    "babyCare": false,
    "cleanlinessScore": 3,
    "tags": [],
    "sourceId": 35
  },
  {
    "nameZh": "中環威靈頓街公廁",
    "nameEn": "",
    "districtZh": "中環",
    "districtEn": "",
    "addressZh": "中環威靈頓街",
    "addressEn": "",
    "latitude": 22.2817109,
    "longitude": 114.1557205,
    "openingHours": "24 小時開放的公廁(男廁)",
    "accessible": false,
    "babyCare": false,
    "cleanlinessScore": 3,
    "tags": [],
    "sourceId": 32
  },
  {
    "nameZh": "中環永和街公廁",
    "nameEn": "",
    "districtZh": "中環",
    "districtEn": "",
    "addressZh": "中環永和街23號",
    "addressEn": "",
    "latitude": 22.2818286,
    "longitude": 114.1582784,
    "openingHours": "24 小時開放的公廁",
    "accessible": false,
    "babyCare": false,
    "cleanlinessScore": 3,
    "tags": [],
    "sourceId": 31
  },
  {
    "nameZh": "中環美輪街公廁",
    "nameEn": "",
    "districtZh": "中環",
    "districtEn": "",
    "addressZh": "中環美輪街6號",
    "addressEn": "",
    "latitude": 22.2818286,
    "longitude": 114.1582784,
    "openingHours": "24 小時開放的公廁",
    "accessible": false,
    "babyCare": false,
    "cleanlinessScore": 3,
    "tags": [],
    "sourceId": 30
  },
  {
    "nameZh": "中環皇后大道公廁",
    "nameEn": "",
    "districtZh": "中環",
    "districtEn": "",
    "addressZh": "中環皇后大道銀行街",
    "addressEn": "",
    "latitude": 22.2808167,
    "longitude": 114.157722,
    "openingHours": "24 小時開放的公廁",
    "accessible": false,
    "babyCare": false,
    "cleanlinessScore": 3,
    "tags": [],
    "sourceId": 25
  },
  {
    "nameZh": "中環蘭桂坊公廁",
    "nameEn": "",
    "districtZh": "中環",
    "districtEn": "",
    "addressZh": "中環蘭桂坊休憩處底層",
    "addressEn": "",
    "latitude": 22.2818286,
    "longitude": 114.1582784,
    "openingHours": "24 小時開放的公廁",
    "accessible": false,
    "babyCare": false,
    "cleanlinessScore": 3,
    "tags": [],
    "sourceId": 17
  },
  {
    "nameZh": "中環麥當勞道公廁",
    "nameEn": "",
    "districtZh": "中環",
    "districtEn": "",
    "addressZh": "中環麥當勞道48號",
    "addressEn": "",
    "latitude": 22.2818286,
    "longitude": 114.1582784,
    "openingHours": "24 小時開放的公廁",
    "accessible": false,
    "babyCare": false,
    "cleanlinessScore": 3,
    "tags": [],
    "sourceId": 15
  },
  {
    "nameZh": "中環民輝街公廁",
    "nameEn": "",
    "districtZh": "中環",
    "districtEn": "",
    "addressZh": "中環民輝街",
    "addressEn": "",
    "latitude": 22.2886449,
    "longitude": 114.1556782,
    "openingHours": "24 小時開放的公廁",
    "accessible": false,
    "babyCare": false,
    "cleanlinessScore": 3,
    "tags": [],
    "sourceId": 13
  },
  {
    "nameZh": "中環民耀街公廁 (已拆卸)",
    "nameEn": "",
    "districtZh": "中環",
    "districtEn": "",
    "addressZh": "中環民耀街(七號碼頭)",
    "addressEn": "",
    "latitude": 22.2818286,
    "longitude": 114.1582784,
    "openingHours": "(已拆卸)",
    "accessible": false,
    "babyCare": false,
    "cleanlinessScore": 3,
    "tags": [],
    "sourceId": 12
  },
  {
    "nameZh": "中環交易廣場公廁",
    "nameEn": "",
    "districtZh": "中環",
    "districtEn": "",
    "addressZh": "中環交易廣場地下",
    "addressEn": "",
    "latitude": 22.2836038,
    "longitude": 114.1584155,
    "openingHours": "24 小時開放的公廁",
    "accessible": false,
    "babyCare": false,
    "cleanlinessScore": 3,
    "tags": [],
    "sourceId": 9
  },
  {
    "nameZh": "中環己連拿利道公廁",
    "nameEn": "",
    "districtZh": "中環",
    "districtEn": "",
    "addressZh": "中環己連拿利道",
    "addressEn": "",
    "latitude": 22.2818286,
    "longitude": 114.1582784,
    "openingHours": "24 小時開放的公廁",
    "accessible": false,
    "babyCare": false,
    "cleanlinessScore": 3,
    "tags": [],
    "sourceId": 8
  },
  {
    "nameZh": "中環香港公園公廁",
    "nameEn": "",
    "districtZh": "中環",
    "districtEn": "",
    "addressZh": "中環香港公園室內運動場",
    "addressEn": "",
    "latitude": 22.2792403,
    "longitude": 114.1615832,
    "openingHours": "24 小時開放的公廁",
    "accessible": false,
    "babyCare": false,
    "cleanlinessScore": 3,
    "tags": [],
    "sourceId": 6
  },
  {
    "nameZh": "中環雪廠街公廁",
    "nameEn": "",
    "districtZh": "中環",
    "districtEn": "",
    "addressZh": "中環雪廠街16號",
    "addressEn": "",
    "latitude": 22.2804699,
    "longitude": 114.1563256,
    "openingHours": "24 小時開放的公廁",
    "accessible": false,
    "babyCare": false,
    "cleanlinessScore": 3,
    "tags": [],
    "sourceId": 4
  },
  {
    "nameZh": "中環堅尼地道及花園道公廁",
    "nameEn": "",
    "districtZh": "中環",
    "districtEn": "",
    "addressZh": "中環堅尼地道及花園道",
    "addressEn": "",
    "latitude": 22.2818286,
    "longitude": 114.1582784,
    "openingHours": "24 小時開放的公廁",
    "accessible": false,
    "babyCare": false,
    "cleanlinessScore": 3,
    "tags": [],
    "sourceId": 2
  },
  {
    "nameZh": "香港黃竹坑新圍村公廁",
    "nameEn": "",
    "districtZh": "黃竹坑",
    "districtEn": "",
    "addressZh": "香港黃竹坑新圍村",
    "addressEn": "",
    "latitude": 22.2478643,
    "longitude": 114.1675119,
    "openingHours": "24 小時開放的公廁",
    "accessible": false,
    "babyCare": false,
    "cleanlinessScore": 3,
    "tags": [],
    "sourceId": 253
  },
  {
    "nameZh": "黃竹坑深灣道公廁",
    "nameEn": "",
    "districtZh": "黃竹坑",
    "districtEn": "",
    "addressZh": "黃竹坑深灣道",
    "addressEn": "",
    "latitude": 22.2453219,
    "longitude": 114.1687453,
    "openingHours": "24 小時開放的公廁",
    "accessible": false,
    "babyCare": false,
    "cleanlinessScore": 3,
    "tags": [],
    "sourceId": 252
  },
  {
    "nameZh": "黃竹坑業發街公廁",
    "nameEn": "",
    "districtZh": "黃竹坑",
    "districtEn": "",
    "addressZh": "黃竹坑業發街12號",
    "addressEn": "",
    "latitude": 22.2478643,
    "longitude": 114.1675119,
    "openingHours": "24 小時開放的公廁",
    "accessible": false,
    "babyCare": false,
    "cleanlinessScore": 3,
    "tags": [],
    "sourceId": 250
  },
  {
    "nameZh": "炮台山油街公廁",
    "nameEn": "",
    "districtZh": "炮台山",
    "districtEn": "",
    "addressZh": "炮台山油街3號",
    "addressEn": "",
    "latitude": 22.2891408,
    "longitude": 114.1914807,
    "openingHours": "24 小時開放的公廁",
    "accessible": false,
    "babyCare": false,
    "cleanlinessScore": 3,
    "tags": [],
    "sourceId": 43
  },
  {
    "nameZh": "天后華倫街公廁",
    "nameEn": "",
    "districtZh": "天后",
    "districtEn": "",
    "addressZh": "天后華倫街",
    "addressEn": "",
    "latitude": 22.28225,
    "longitude": 114.1917867,
    "openingHours": "24 小時開放的公廁",
    "accessible": false,
    "babyCare": false,
    "cleanlinessScore": 3,
    "tags": [],
    "sourceId": 501
  },
  {
    "nameZh": "天后永興街公廁",
    "nameEn": "",
    "districtZh": "天后",
    "districtEn": "",
    "addressZh": "天后永興街15號",
    "addressEn": "",
    "latitude": 22.2854271,
    "longitude": 114.1921587,
    "openingHours": "24 小時開放的公廁",
    "accessible": false,
    "babyCare": false,
    "cleanlinessScore": 3,
    "tags": [],
    "sourceId": 500
  },
  {
    "nameZh": "天后興發街維多利亞公園入口公廁",
    "nameEn": "",
    "districtZh": "天后",
    "districtEn": "",
    "addressZh": "天后興發街維多利亞公園入口",
    "addressEn": "",
    "latitude": 22.28225,
    "longitude": 114.1917867,
    "openingHours": "24 小時開放的公廁",
    "accessible": false,
    "babyCare": false,
    "cleanlinessScore": 3,
    "tags": [],
    "sourceId": 493
  },
  {
    "nameZh": "太古鰂魚涌街公廁",
    "nameEn": "",
    "districtZh": "太古",
    "districtEn": "",
    "addressZh": "太古鰂魚涌街38號",
    "addressEn": "",
    "latitude": 22.2846366,
    "longitude": 114.2163223,
    "openingHours": "24 小時開放的公廁",
    "accessible": false,
    "babyCare": false,
    "cleanlinessScore": 3,
    "tags": [],
    "sourceId": 41
  },
  {
    "nameZh": "北角糖水道公廁",
    "nameEn": "",
    "districtZh": "北角",
    "districtEn": "",
    "addressZh": "北角糖水道",
    "addressEn": "",
    "latitude": 22.2910685,
    "longitude": 114.1987723,
    "openingHours": "24 小時開放的公廁",
    "accessible": false,
    "babyCare": false,
    "cleanlinessScore": 3,
    "tags": [],
    "sourceId": 47
  },
  {
    "nameZh": "北角碼頭公廁",
    "nameEn": "",
    "districtZh": "北角",
    "districtEn": "",
    "addressZh": "北角碼頭公共運輸交匯處",
    "addressEn": "",
    "latitude": 22.2931491,
    "longitude": 114.2020213,
    "openingHours": "24 小時開放的公廁",
    "accessible": false,
    "babyCare": false,
    "cleanlinessScore": 3,
    "tags": [],
    "sourceId": 44
  },
  {
    "nameZh": "北角街市公廁",
    "nameEn": "",
    "districtZh": "北角",
    "districtEn": "",
    "addressZh": "北角百福道北角街市",
    "addressEn": "",
    "latitude": 22.3745494,
    "longitude": 114.1223137,
    "openingHours": "24 小時開放的公廁",
    "accessible": false,
    "babyCare": false,
    "cleanlinessScore": 3,
    "tags": [],
    "sourceId": 42
  },
  {
    "nameZh": "北角渣華道公廁",
    "nameEn": "",
    "districtZh": "北角",
    "districtEn": "",
    "addressZh": "北角渣華道汽車渡海小輪碼頭",
    "addressEn": "",
    "latitude": 22.2922471,
    "longitude": 114.2007479,
    "openingHours": "24 小時開放的公廁",
    "accessible": false,
    "babyCare": false,
    "cleanlinessScore": 3,
    "tags": [],
    "sourceId": 38
  },
  {
    "nameZh": "半山羅便臣道公廁",
    "nameEn": "",
    "districtZh": "半山",
    "districtEn": "",
    "addressZh": "半山羅便臣道",
    "addressEn": "",
    "latitude": 22.2769349,
    "longitude": 114.1559371,
    "openingHours": "24 小時開放的公廁 (男廁)",
    "accessible": false,
    "babyCare": false,
    "cleanlinessScore": 3,
    "tags": [],
    "sourceId": 24
  },
  {
    "nameZh": "半山旭龢道公廁",
    "nameEn": "",
    "districtZh": "半山",
    "districtEn": "",
    "addressZh": "半山旭龢道17號",
    "addressEn": "",
    "latitude": 22.2668929,
    "longitude": 114.2132783,
    "openingHours": "24 小時開放的公廁",
    "accessible": false,
    "babyCare": false,
    "cleanlinessScore": 3,
    "tags": [],
    "sourceId": 19
  },
  {
    "nameZh": "半山梅道公廁",
    "nameEn": "",
    "districtZh": "半山",
    "districtEn": "",
    "addressZh": "半山梅道",
    "addressEn": "",
    "latitude": 22.2912657,
    "longitude": 114.2090663,
    "openingHours": "24 小時開放的公廁",
    "accessible": false,
    "babyCare": false,
    "cleanlinessScore": 3,
    "tags": [],
    "sourceId": 11
  },
  {
    "nameZh": "半山克頓道公廁",
    "nameEn": "",
    "districtZh": "半山",
    "districtEn": "",
    "addressZh": "半山克頓道",
    "addressEn": "",
    "latitude": 22.2738118,
    "longitude": 114.1383639,
    "openingHours": "24 小時開放的公廁",
    "accessible": false,
    "babyCare": false,
    "cleanlinessScore": 3,
    "tags": [],
    "sourceId": 7
  },
  {
    "nameZh": "西營盤水街公廁",
    "nameEn": "",
    "districtZh": "西環",
    "districtEn": "",
    "addressZh": "西營盤水街",
    "addressEn": "",
    "latitude": 22.2858376,
    "longitude": 114.134023,
    "openingHours": "24 小時開放的公廁",
    "accessible": false,
    "babyCare": false,
    "cleanlinessScore": 3,
    "tags": [],
    "sourceId": 33
  },
  {
    "nameZh": "西營盤梅芳街公廁",
    "nameEn": "",
    "districtZh": "西環",
    "districtEn": "",
    "addressZh": "西營盤梅芳街休憩處",
    "addressEn": "",
    "latitude": 22.2858376,
    "longitude": 114.134023,
    "openingHours": "24 小時開放的公廁",
    "accessible": false,
    "babyCare": false,
    "cleanlinessScore": 3,
    "tags": [],
    "sourceId": 29
  },
  {
    "nameZh": "石塘咀市政大廈公廁",
    "nameEn": "",
    "districtZh": "西環",
    "districtEn": "",
    "addressZh": "石塘咀皇后大道西470號市政大廈2樓",
    "addressEn": "",
    "latitude": 22.2859375,
    "longitude": 114.1349546,
    "openingHours": "24 小時開放的公廁",
    "accessible": false,
    "babyCare": false,
    "cleanlinessScore": 3,
    "tags": [],
    "sourceId": 22
  },
  {
    "nameZh": "堅尼地城市政大廈公廁",
    "nameEn": "",
    "districtZh": "西環",
    "districtEn": "",
    "addressZh": "堅尼地城士美菲路12號市政大廈地下",
    "addressEn": "",
    "latitude": 22.2814852,
    "longitude": 114.1291911,
    "openingHours": "24 小時開放的公廁",
    "accessible": false,
    "babyCare": false,
    "cleanlinessScore": 3,
    "tags": [],
    "sourceId": 21
  },
  {
    "nameZh": "堅尼地城域多利道公廁",
    "nameEn": "",
    "districtZh": "西環",
    "districtEn": "",
    "addressZh": "堅尼地城域多利道",
    "addressEn": "",
    "latitude": 22.2815152,
    "longitude": 114.1230065,
    "openingHours": "24 小時開放的公廁",
    "accessible": false,
    "babyCare": false,
    "cleanlinessScore": 3,
    "tags": [],
    "sourceId": 20
  },
  {
    "nameZh": "西營盤正街街市公廁",
    "nameEn": "",
    "districtZh": "西環",
    "districtEn": "",
    "addressZh": "西營盤第一街正街街市",
    "addressEn": "",
    "latitude": 22.2858376,
    "longitude": 114.134023,
    "openingHours": "24 小時開放的公廁",
    "accessible": false,
    "babyCare": false,
    "cleanlinessScore": 3,
    "tags": [],
    "sourceId": 10
  },
  {
    "nameZh": "西營盤醫院道公廁",
    "nameEn": "",
    "districtZh": "西環",
    "districtEn": "",
    "addressZh": "西營盤醫院道4號食物安全中心地庫",
    "addressEn": "",
    "latitude": 22.2854464,
    "longitude": 114.1458444,
    "openingHours": "24 小時開放的公廁",
    "accessible": false,
    "babyCare": false,
    "cleanlinessScore": 3,
    "tags": [],
    "sourceId": 5
  },
  {
    "nameZh": "西環卑路乍街公廁",
    "nameEn": "",
    "districtZh": "西環",
    "districtEn": "",
    "addressZh": "西環卑路乍街2-12號",
    "addressEn": "",
    "latitude": 22.2818705,
    "longitude": 114.1269078,
    "openingHours": "24 小時開放的公廁",
    "accessible": false,
    "babyCare": false,
    "cleanlinessScore": 3,
    "tags": [],
    "sourceId": 1
  },
  {
    "nameZh": "灣仔摩利臣山道公廁",
    "nameEn": "",
    "districtZh": "灣仔",
    "districtEn": "",
    "addressZh": "灣仔摩利臣山道",
    "addressEn": "",
    "latitude": 22.274154,
    "longitude": 114.1760583,
    "openingHours": "24 小時開放的公廁",
    "accessible": false,
    "babyCare": false,
    "cleanlinessScore": 3,
    "tags": [],
    "sourceId": 507
  },
  {
    "nameZh": "灣仔修頓中心公廁",
    "nameEn": "",
    "districtZh": "灣仔",
    "districtEn": "",
    "addressZh": "灣仔軒尼詩道130號修頓中心地下",
    "addressEn": "",
    "latitude": 22.2778319,
    "longitude": 114.1682863,
    "openingHours": "24 小時開放的公廁",
    "accessible": false,
    "babyCare": false,
    "cleanlinessScore": 3,
    "tags": [],
    "sourceId": 505
  },
  {
    "nameZh": "灣仔皇后大道東公廁",
    "nameEn": "",
    "districtZh": "灣仔",
    "districtEn": "",
    "addressZh": "灣仔皇后大道東258號",
    "addressEn": "",
    "latitude": 22.274154,
    "longitude": 114.1760583,
    "openingHours": "24 小時開放的公廁",
    "accessible": false,
    "babyCare": false,
    "cleanlinessScore": 3,
    "tags": [],
    "sourceId": 503
  },
  {
    "nameZh": "灣仔渡輪碼頭廣場巴士總站公廁",
    "nameEn": "",
    "districtZh": "灣仔",
    "districtEn": "",
    "addressZh": "灣仔渡輪碼頭廣場巴士總站",
    "addressEn": "",
    "latitude": 22.2790146,
    "longitude": 114.1724833,
    "openingHours": "24 小時開放的公廁",
    "accessible": false,
    "babyCare": false,
    "cleanlinessScore": 3,
    "tags": [],
    "sourceId": 502
  },
  {
    "nameZh": "灣仔皇后大道東囍滙第二期公廁",
    "nameEn": "",
    "districtZh": "灣仔",
    "districtEn": "",
    "addressZh": "灣仔皇后大道東200號囍滙第二期地下",
    "addressEn": "",
    "latitude": 22.274154,
    "longitude": 114.1760583,
    "openingHours": "24 小時開放的公廁",
    "accessible": false,
    "babyCare": false,
    "cleanlinessScore": 3,
    "tags": [],
    "sourceId": 498
  },
  {
    "nameZh": "灣仔寶雲道健身徑公廁",
    "nameEn": "",
    "districtZh": "灣仔",
    "districtEn": "",
    "addressZh": "灣仔寶雲道健身徑",
    "addressEn": "",
    "latitude": 22.2790146,
    "longitude": 114.1724833,
    "openingHours": "24 小時開放的公廁",
    "accessible": false,
    "babyCare": false,
    "cleanlinessScore": 3,
    "tags": [],
    "sourceId": 497
  },
  {
    "nameZh": "灣仔堅拿道公廁",
    "nameEn": "",
    "districtZh": "灣仔",
    "districtEn": "",
    "addressZh": "灣仔堅拿道",
    "addressEn": "",
    "latitude": 22.2723873,
    "longitude": 114.1798966,
    "openingHours": "24 小時開放的公廁",
    "accessible": false,
    "babyCare": false,
    "cleanlinessScore": 3,
    "tags": [],
    "sourceId": 496
  },
  {
    "nameZh": "灣仔交加里公廁",
    "nameEn": "",
    "districtZh": "灣仔",
    "districtEn": "",
    "addressZh": "灣仔交加里",
    "addressEn": "",
    "latitude": 22.2731426,
    "longitude": 114.1886523,
    "openingHours": "24 小時開放的公廁",
    "accessible": false,
    "babyCare": false,
    "cleanlinessScore": 3,
    "tags": [],
    "sourceId": 495
  },
  {
    "nameZh": "灣仔博覽道東金紫荊廣場公廁",
    "nameEn": "",
    "districtZh": "灣仔",
    "districtEn": "",
    "addressZh": "灣仔博覽道東金紫荊廣場",
    "addressEn": "",
    "latitude": 22.2790146,
    "longitude": 114.1724833,
    "openingHours": "24 小時開放的公廁",
    "accessible": false,
    "babyCare": false,
    "cleanlinessScore": 3,
    "tags": [],
    "sourceId": 494
  },
  {
    "nameZh": "灣仔吉安街公廁",
    "nameEn": "",
    "districtZh": "灣仔",
    "districtEn": "",
    "addressZh": "灣仔吉安街",
    "addressEn": "",
    "latitude": 22.2790146,
    "longitude": 114.1724833,
    "openingHours": "24 小時開放的公廁",
    "accessible": false,
    "babyCare": false,
    "cleanlinessScore": 3,
    "tags": [],
    "sourceId": 492
  },
  {
    "nameZh": "柴灣港鐵站公共運輸交匯處公廁",
    "nameEn": "",
    "districtZh": "灣仔",
    "districtEn": "",
    "addressZh": "柴灣寧富街, 柴灣港鐵站公共運輸交匯處",
    "addressEn": "",
    "latitude": 22.2790146,
    "longitude": 114.1724833,
    "openingHours": "24 小時開放的公廁",
    "accessible": false,
    "babyCare": false,
    "cleanlinessScore": 3,
    "tags": [],
    "sourceId": 45
  },
  {
    "nameZh": "西灣河海寧街公廁",
    "nameEn": "",
    "districtZh": "西灣河",
    "districtEn": "",
    "addressZh": "西灣河海寧街26號",
    "addressEn": "",
    "latitude": 22.2824457,
    "longitude": 114.2215064,
    "openingHours": "24 小時開放的公廁",
    "accessible": false,
    "babyCare": false,
    "cleanlinessScore": 3,
    "tags": [],
    "sourceId": 39
  },
  {
    "nameZh": "柴灣杏花村公廁",
    "nameEn": "",
    "districtZh": "杏花村",
    "districtEn": "",
    "addressZh": "柴灣杏花村常安街",
    "addressEn": "",
    "latitude": 22.2638498,
    "longitude": 114.2325703,
    "openingHours": "24 小時開放的公廁",
    "accessible": false,
    "babyCare": false,
    "cleanlinessScore": 3,
    "tags": [],
    "sourceId": 46
  },
  {
    "nameZh": "香港仔巴士總站公廁",
    "nameEn": "",
    "districtZh": "香港仔",
    "districtEn": "",
    "addressZh": "香港仔湖南街香港仔巴士總站",
    "addressEn": "",
    "latitude": 22.2489071,
    "longitude": 114.1564209,
    "openingHours": "24 小時開放的公廁",
    "accessible": false,
    "babyCare": false,
    "cleanlinessScore": 3,
    "tags": [],
    "sourceId": 251
  },
  {
    "nameZh": "香港仔大道公廁",
    "nameEn": "",
    "districtZh": "香港仔",
    "districtEn": "",
    "addressZh": "香港仔大道16號",
    "addressEn": "",
    "latitude": 22.2478581,
    "longitude": 114.1589699,
    "openingHours": "24 小時開放的公廁",
    "accessible": false,
    "babyCare": false,
    "cleanlinessScore": 3,
    "tags": [],
    "sourceId": 245
  },
  {
    "nameZh": "筲箕灣東喜道公廁",
    "nameEn": "",
    "districtZh": "筲箕灣",
    "districtEn": "",
    "addressZh": "筲箕灣東喜道28號",
    "addressEn": "",
    "latitude": 22.2826752,
    "longitude": 114.2350603,
    "openingHours": "24 小時開放的公廁",
    "accessible": false,
    "babyCare": false,
    "cleanlinessScore": 3,
    "tags": [],
    "sourceId": 48
  },
  {
    "nameZh": "筲箕灣阿公岩村道公廁",
    "nameEn": "",
    "districtZh": "筲箕灣",
    "districtEn": "",
    "addressZh": "筲箕灣阿公岩村道",
    "addressEn": "",
    "latitude": 22.2815243,
    "longitude": 114.2311916,
    "openingHours": "24 小時開放的公廁",
    "accessible": false,
    "babyCare": false,
    "cleanlinessScore": 3,
    "tags": [],
    "sourceId": 40
  },
  {
    "nameZh": "筲箕灣金華街公廁",
    "nameEn": "",
    "districtZh": "筲箕灣",
    "districtEn": "",
    "addressZh": "筲箕灣金華街",
    "addressEn": "",
    "latitude": 22.2781696,
    "longitude": 114.2281995,
    "openingHours": "24 小時開放的公廁",
    "accessible": false,
    "babyCare": false,
    "cleanlinessScore": 3,
    "tags": [],
    "sourceId": 37
  },
  {
    "nameZh": "筲箕灣南安街公廁",
    "nameEn": "",
    "districtZh": "筲箕灣",
    "districtEn": "",
    "addressZh": "筲箕灣南安街81號",
    "addressEn": "",
    "latitude": 22.2791427,
    "longitude": 114.2265122,
    "openingHours": "24 小時開放的公廁",
    "accessible": false,
    "babyCare": false,
    "cleanlinessScore": 3,
    "tags": [],
    "sourceId": 36
  },
  {
    "nameZh": "銅鑼灣成和道公廁",
    "nameEn": "",
    "districtZh": "銅鑼灣",
    "districtEn": "",
    "addressZh": "銅鑼灣成和道",
    "addressEn": "",
    "latitude": 22.2797557,
    "longitude": 114.18585,
    "openingHours": "24 小時開放的公廁",
    "accessible": false,
    "babyCare": false,
    "cleanlinessScore": 3,
    "tags": [],
    "sourceId": 506
  },
  {
    "nameZh": "銅鑼灣黃泥涌道公廁",
    "nameEn": "",
    "districtZh": "銅鑼灣",
    "districtEn": "",
    "addressZh": "銅鑼灣黃泥涌道95號",
    "addressEn": "",
    "latitude": 22.2729193,
    "longitude": 114.184128,
    "openingHours": "24 小時開放的公廁",
    "accessible": false,
    "babyCare": false,
    "cleanlinessScore": 3,
    "tags": [],
    "sourceId": 499
  },
  {
    "nameZh": "摩頓臺銅鑼灣徑巴士總站公廁",
    "nameEn": "",
    "districtZh": "銅鑼灣",
    "districtEn": "",
    "addressZh": "銅鑼灣摩頓臺銅鑼灣徑巴士總站",
    "addressEn": "",
    "latitude": 22.2820777,
    "longitude": 114.1891587,
    "openingHours": "24 小時開放的公廁",
    "accessible": false,
    "babyCare": false,
    "cleanlinessScore": 3,
    "tags": [],
    "sourceId": 490
  },
  {
    "nameZh": "鴨脷洲利樂街公廁",
    "nameEn": "",
    "districtZh": "鴨脷洲",
    "districtEn": "",
    "addressZh": "鴨脷洲利樂街",
    "addressEn": "",
    "latitude": 22.2374661,
    "longitude": 114.1533863,
    "openingHours": "24 小時開放的公廁",
    "accessible": false,
    "babyCare": false,
    "cleanlinessScore": 3,
    "tags": [],
    "sourceId": 244
  },
  {
    "nameZh": "鴨脷洲洪聖街公廁",
    "nameEn": "",
    "districtZh": "鴨脷洲",
    "districtEn": "",
    "addressZh": "鴨脷洲洪聖街8號鴨脷洲市政大廈",
    "addressEn": "",
    "latitude": 22.2443768,
    "longitude": 114.1556014,
    "openingHours": "24 小時開放的公廁",
    "accessible": false,
    "babyCare": false,
    "cleanlinessScore": 3,
    "tags": [],
    "sourceId": 243
  },
  {
    "nameZh": "薄扶林村D座公廁",
    "nameEn": "",
    "districtZh": "薄扶林",
    "districtEn": "",
    "addressZh": "薄扶林村128E號D座",
    "addressEn": "",
    "latitude": 22.2613585,
    "longitude": 114.1368109,
    "openingHours": "24 小時開放的公廁",
    "accessible": false,
    "babyCare": false,
    "cleanlinessScore": 3,
    "tags": [],
    "sourceId": 249
  },
  {
    "nameZh": "薄扶林村C座公廁",
    "nameEn": "",
    "districtZh": "薄扶林",
    "districtEn": "",
    "addressZh": "薄扶林村5R號C座",
    "addressEn": "",
    "latitude": 22.2613585,
    "longitude": 114.1368109,
    "openingHours": "24 小時開放的公廁",
    "accessible": false,
    "babyCare": false,
    "cleanlinessScore": 3,
    "tags": [],
    "sourceId": 248
  },
  {
    "nameZh": "薄扶林村B座公廁",
    "nameEn": "",
    "districtZh": "薄扶林",
    "districtEn": "",
    "addressZh": "薄扶林村44號B座",
    "addressEn": "",
    "latitude": 22.26049,
    "longitude": 114.1362139,
    "openingHours": "24 小時開放的公廁",
    "accessible": false,
    "babyCare": false,
    "cleanlinessScore": 3,
    "tags": [],
    "sourceId": 247
  },
  {
    "nameZh": "薄扶林村A座公廁",
    "nameEn": "",
    "districtZh": "薄扶林",
    "districtEn": "",
    "addressZh": "薄扶林村63號A座",
    "addressEn": "",
    "latitude": 22.26049,
    "longitude": 114.1362139,
    "openingHours": "24 小時開放的公廁",
    "accessible": false,
    "babyCare": false,
    "cleanlinessScore": 3,
    "tags": [],
    "sourceId": 246
  },
  {
    "nameZh": "太子洋松街公廁",
    "nameEn": "",
    "districtZh": "太子",
    "districtEn": "",
    "addressZh": "太子洋松街105號",
    "addressEn": "",
    "latitude": 22.3244547,
    "longitude": 114.1683017,
    "openingHours": "24 小時開放的公廁",
    "accessible": false,
    "babyCare": false,
    "cleanlinessScore": 3,
    "tags": [],
    "sourceId": 159
  },
  {
    "nameZh": "太子洗衣街公廁",
    "nameEn": "",
    "districtZh": "太子",
    "districtEn": "",
    "addressZh": "太子洗衣街188號",
    "addressEn": "",
    "latitude": 22.4526501,
    "longitude": 114.1866747,
    "openingHours": "24 小時開放的公廁",
    "accessible": false,
    "babyCare": false,
    "cleanlinessScore": 3,
    "tags": [],
    "sourceId": 153
  },
  {
    "nameZh": "佐敦炮台街公廁",
    "nameEn": "",
    "districtZh": "佐敦",
    "districtEn": "",
    "addressZh": "佐敦炮台街42號",
    "addressEn": "",
    "latitude": 22.3054998,
    "longitude": 114.1685127,
    "openingHours": "24 小時開放的公廁",
    "accessible": false,
    "babyCare": false,
    "cleanlinessScore": 3,
    "tags": [],
    "sourceId": 519
  },
  {
    "nameZh": "佐敦加士居道公廁",
    "nameEn": "",
    "districtZh": "佐敦",
    "districtEn": "",
    "addressZh": "佐敦加士居道45號",
    "addressEn": "",
    "latitude": 22.30481,
    "longitude": 114.1717074,
    "openingHours": "24 小時開放的公廁",
    "accessible": false,
    "babyCare": false,
    "cleanlinessScore": 3,
    "tags": [],
    "sourceId": 518
  },
  {
    "nameZh": "佐敦白加士街公廁",
    "nameEn": "",
    "districtZh": "佐敦",
    "districtEn": "",
    "addressZh": "佐敦白加士街107號",
    "addressEn": "",
    "latitude": 22.3051303,
    "longitude": 114.1703513,
    "openingHours": "24 小時開放的公廁",
    "accessible": false,
    "babyCare": false,
    "cleanlinessScore": 3,
    "tags": [],
    "sourceId": 513
  },
  {
    "nameZh": "旺角晏架街遊樂場公廁",
    "nameEn": "",
    "districtZh": "旺角",
    "districtEn": "",
    "addressZh": "旺角晏架街遊樂場",
    "addressEn": "",
    "latitude": 22.319308,
    "longitude": 114.1698076,
    "openingHours": "24 小時開放的公廁",
    "accessible": false,
    "babyCare": false,
    "cleanlinessScore": 3,
    "tags": [],
    "sourceId": 160
  },
  {
    "nameZh": "旺角上海街公廁",
    "nameEn": "",
    "districtZh": "旺角",
    "districtEn": "",
    "addressZh": "旺角上海街661B號",
    "addressEn": "",
    "latitude": 22.318083,
    "longitude": 114.1681272,
    "openingHours": "24 小時開放的公廁",
    "accessible": false,
    "babyCare": false,
    "cleanlinessScore": 3,
    "tags": [],
    "sourceId": 158
  },
  {
    "nameZh": "旺角廣東道公廁",
    "nameEn": "",
    "districtZh": "旺角",
    "districtEn": "",
    "addressZh": "旺角廣東道1024號",
    "addressEn": "",
    "latitude": 22.3185636,
    "longitude": 114.16705,
    "openingHours": "24 小時開放的公廁",
    "accessible": false,
    "babyCare": false,
    "cleanlinessScore": 3,
    "tags": [],
    "sourceId": 157
  },
  {
    "nameZh": "奧運站博文街公廁",
    "nameEn": "",
    "districtZh": "旺角",
    "districtEn": "",
    "addressZh": "奧運博文街深旺道1號奧運站",
    "addressEn": "",
    "latitude": 22.319308,
    "longitude": 114.1698076,
    "openingHours": "24 小時開放的公廁",
    "accessible": false,
    "babyCare": false,
    "cleanlinessScore": 3,
    "tags": [],
    "sourceId": 156
  },
  {
    "nameZh": "旺角砵蘭街公廁",
    "nameEn": "",
    "districtZh": "旺角",
    "districtEn": "",
    "addressZh": "旺角砵蘭街193號",
    "addressEn": "",
    "latitude": 22.3256953,
    "longitude": 114.1671899,
    "openingHours": "24 小時開放的公廁",
    "accessible": false,
    "babyCare": false,
    "cleanlinessScore": 3,
    "tags": [],
    "sourceId": 155
  },
  {
    "nameZh": "旺角洗衣街公園公廁",
    "nameEn": "",
    "districtZh": "旺角",
    "districtEn": "",
    "addressZh": "旺角洗衣街公園",
    "addressEn": "",
    "latitude": 22.319308,
    "longitude": 114.1698076,
    "openingHours": "24 小時開放的公廁",
    "accessible": false,
    "babyCare": false,
    "cleanlinessScore": 3,
    "tags": [],
    "sourceId": 154
  },
  {
    "nameZh": "油塘茶果嶺大街公廁",
    "nameEn": "",
    "districtZh": "油塘",
    "districtEn": "",
    "addressZh": "油塘茶果嶺大街90號",
    "addressEn": "",
    "latitude": 22.2986711,
    "longitude": 114.237831,
    "openingHours": "24 小時開放的公廁",
    "accessible": false,
    "babyCare": false,
    "cleanlinessScore": 3,
    "tags": [],
    "sourceId": 134
  },
  {
    "nameZh": "鯉魚門徑嶺南新村公廁",
    "nameEn": "",
    "districtZh": "油塘",
    "districtEn": "",
    "addressZh": "鯉魚門徑嶺南新村",
    "addressEn": "",
    "latitude": 22.2986711,
    "longitude": 114.237831,
    "openingHours": "24 小時開放的公廁",
    "accessible": false,
    "babyCare": false,
    "cleanlinessScore": 3,
    "tags": [],
    "sourceId": 129
  },
  {
    "nameZh": "鯉魚門馬環村入口公廁",
    "nameEn": "",
    "districtZh": "油塘",
    "districtEn": "",
    "addressZh": "鯉魚門海傍道東馬環村入口",
    "addressEn": "",
    "latitude": 22.2986711,
    "longitude": 114.237831,
    "openingHours": "24 小時開放的公廁",
    "accessible": false,
    "babyCare": false,
    "cleanlinessScore": 3,
    "tags": [],
    "sourceId": 128
  },
  {
    "nameZh": "紅磡康宏廣場公廁",
    "nameEn": "",
    "districtZh": "紅磡",
    "districtEn": "",
    "addressZh": "紅磡科學館道1號康宏廣場",
    "addressEn": "",
    "latitude": 22.3055217,
    "longitude": 114.1805857,
    "openingHours": "24 小時開放的公廁",
    "accessible": false,
    "babyCare": false,
    "cleanlinessScore": 3,
    "tags": [],
    "sourceId": 512
  },
  {
    "nameZh": "新紅磡碼頭公廁",
    "nameEn": "",
    "districtZh": "紅磡",
    "districtEn": "",
    "addressZh": "新紅磡碼頭",
    "addressEn": "",
    "latitude": 22.3354561,
    "longitude": 114.1887379,
    "openingHours": "24 小時開放的公廁",
    "accessible": false,
    "babyCare": false,
    "cleanlinessScore": 3,
    "tags": [],
    "sourceId": 125
  },
  {
    "nameZh": "黃埔戴亞街公廁",
    "nameEn": "",
    "districtZh": "紅磡",
    "districtEn": "",
    "addressZh": "黃埔戴亞街1號",
    "addressEn": "",
    "latitude": 22.3068983,
    "longitude": 114.1863163,
    "openingHours": "24 小時開放的公廁",
    "accessible": false,
    "babyCare": false,
    "cleanlinessScore": 3,
    "tags": [],
    "sourceId": 119
  },
  {
    "nameZh": "紅磡馬頭圍道公廁",
    "nameEn": "",
    "districtZh": "紅磡",
    "districtEn": "",
    "addressZh": "紅磡馬頭圍道11號市政大廈1樓",
    "addressEn": "",
    "latitude": 22.307423,
    "longitude": 114.1874465,
    "openingHours": "24 小時開放的公廁",
    "accessible": false,
    "babyCare": false,
    "cleanlinessScore": 3,
    "tags": [],
    "sourceId": 116
  },
  {
    "nameZh": "彩虹巴士總站公廁",
    "nameEn": "",
    "districtZh": "彩虹",
    "districtEn": "",
    "addressZh": "彩虹巴士總站",
    "addressEn": "",
    "latitude": 22.335257,
    "longitude": 114.2047751,
    "openingHours": "24 小時開放的公廁",
    "accessible": false,
    "babyCare": false,
    "cleanlinessScore": 3,
    "tags": [],
    "sourceId": 489
  },
  {
    "nameZh": "彩虹牛池灣龍池徑公廁",
    "nameEn": "",
    "districtZh": "彩虹",
    "districtEn": "",
    "addressZh": "彩虹牛池灣龍池徑1號",
    "addressEn": "",
    "latitude": 22.335139,
    "longitude": 114.2088185,
    "openingHours": "24 小時開放的公廁",
    "accessible": false,
    "babyCare": false,
    "cleanlinessScore": 3,
    "tags": [],
    "sourceId": 485
  },
  {
    "nameZh": "樂富衙前圍村公廁",
    "nameEn": "",
    "districtZh": "樂富",
    "districtEn": "",
    "addressZh": "樂富東光道衙前圍村",
    "addressEn": "",
    "latitude": 22.3380228,
    "longitude": 114.187233,
    "openingHours": "24 小時開放的公廁",
    "accessible": false,
    "babyCare": false,
    "cleanlinessScore": 3,
    "tags": [],
    "sourceId": 486
  },
  {
    "nameZh": "觀塘基業里公廁",
    "nameEn": "",
    "districtZh": "觀塘",
    "districtEn": "",
    "addressZh": "觀塘基業里",
    "addressEn": "",
    "latitude": 22.3088523,
    "longitude": 114.2216042,
    "openingHours": "24 小時開放的公廁",
    "accessible": false,
    "babyCare": false,
    "cleanlinessScore": 3,
    "tags": [],
    "sourceId": 132
  },
  {
    "nameZh": "觀塘道巴士總站公廁",
    "nameEn": "",
    "districtZh": "觀塘",
    "districtEn": "",
    "addressZh": "觀塘道巴士總站",
    "addressEn": "",
    "latitude": 22.3121044,
    "longitude": 114.2265117,
    "openingHours": "24 小時開放的公廁",
    "accessible": false,
    "babyCare": false,
    "cleanlinessScore": 3,
    "tags": [],
    "sourceId": 131
  },
  {
    "nameZh": "觀塘勵業街公廁",
    "nameEn": "",
    "districtZh": "觀塘",
    "districtEn": "",
    "addressZh": "觀塘勵業街",
    "addressEn": "",
    "latitude": 22.3143953,
    "longitude": 114.2166304,
    "openingHours": "24 小時開放的公廁",
    "accessible": false,
    "babyCare": false,
    "cleanlinessScore": 3,
    "tags": [],
    "sourceId": 130
  },
  {
    "nameZh": "觀塘崇仁街公廁",
    "nameEn": "",
    "districtZh": "觀塘",
    "districtEn": "",
    "addressZh": "觀塘崇仁街39號",
    "addressEn": "",
    "latitude": 22.3155895,
    "longitude": 114.224612,
    "openingHours": "24 小時開放的公廁",
    "accessible": false,
    "babyCare": false,
    "cleanlinessScore": 3,
    "tags": [],
    "sourceId": 126
  },
  {
    "nameZh": "九龍城新碼頭街公廁",
    "nameEn": "",
    "districtZh": "九龍城",
    "districtEn": "",
    "addressZh": "九龍城新碼頭街30號九龍城渡輪碼頭",
    "addressEn": "",
    "latitude": 22.3354561,
    "longitude": 114.1887379,
    "openingHours": "24 小時開放的公廁",
    "accessible": false,
    "babyCare": false,
    "cleanlinessScore": 3,
    "tags": [],
    "sourceId": 123
  },
  {
    "nameZh": "九龍城石鼓壟道公廁",
    "nameEn": "",
    "districtZh": "九龍城",
    "districtEn": "",
    "addressZh": "九龍城石鼓壟道",
    "addressEn": "",
    "latitude": 22.3244366,
    "longitude": 114.1793069,
    "openingHours": "24 小時開放的公廁",
    "accessible": false,
    "babyCare": false,
    "cleanlinessScore": 3,
    "tags": [],
    "sourceId": 122
  },
  {
    "nameZh": "九龍城東正道公廁",
    "nameEn": "",
    "districtZh": "九龍城",
    "districtEn": "",
    "addressZh": "九龍城東正道",
    "addressEn": "",
    "latitude": 22.3044867,
    "longitude": 114.1796935,
    "openingHours": "24 小時開放的公廁",
    "accessible": false,
    "babyCare": false,
    "cleanlinessScore": 3,
    "tags": [],
    "sourceId": 121
  },
  {
    "nameZh": "九龍城市政大廈公廁",
    "nameEn": "",
    "districtZh": "九龍城",
    "districtEn": "",
    "addressZh": "九龍城侯王道市政大廈1樓",
    "addressEn": "",
    "latitude": 22.3302107,
    "longitude": 114.1889315,
    "openingHours": "24 小時開放的公廁",
    "accessible": false,
    "babyCare": false,
    "cleanlinessScore": 3,
    "tags": [],
    "sourceId": 115
  },
  {
    "nameZh": "九龍城龍崗道公廁",
    "nameEn": "",
    "districtZh": "九龍城",
    "districtEn": "",
    "addressZh": "九龍城龍崗道30號",
    "addressEn": "",
    "latitude": 22.3287681,
    "longitude": 114.190764,
    "openingHours": "24 小時開放的公廁",
    "accessible": false,
    "babyCare": false,
    "cleanlinessScore": 3,
    "tags": [],
    "sourceId": 112
  },
  {
    "nameZh": "九龍塘東頭村道樂富公廁",
    "nameEn": "",
    "districtZh": "九龍塘",
    "districtEn": "",
    "addressZh": "九龍塘東頭村道樂富",
    "addressEn": "",
    "latitude": 22.334635,
    "longitude": 114.177078,
    "openingHours": "24 小時開放的公廁",
    "accessible": false,
    "babyCare": false,
    "cleanlinessScore": 3,
    "tags": [],
    "sourceId": 487
  },
  {
    "nameZh": "九龍塘沙福道公廁",
    "nameEn": "",
    "districtZh": "九龍塘",
    "districtEn": "",
    "addressZh": "九龍塘沙福道公共運輸交匯處",
    "addressEn": "",
    "latitude": 22.3368094,
    "longitude": 114.177245,
    "openingHours": "24 小時開放的公廁",
    "accessible": false,
    "babyCare": false,
    "cleanlinessScore": 3,
    "tags": [],
    "sourceId": 113
  },
  {
    "nameZh": "土瓜灣鶴園街公廁",
    "nameEn": "",
    "districtZh": "土瓜灣",
    "districtEn": "",
    "addressZh": "土瓜灣鶴園街12號A",
    "addressEn": "",
    "latitude": 22.3167582,
    "longitude": 114.1895402,
    "openingHours": "24 小時開放的公廁",
    "accessible": false,
    "babyCare": false,
    "cleanlinessScore": 3,
    "tags": [],
    "sourceId": 117
  },
  {
    "nameZh": "土瓜灣九龍城道公廁",
    "nameEn": "",
    "districtZh": "土瓜灣",
    "districtEn": "",
    "addressZh": "土瓜灣九龍城道3號",
    "addressEn": "",
    "latitude": 22.3167582,
    "longitude": 114.1895402,
    "openingHours": "24 小時開放的公廁",
    "accessible": false,
    "babyCare": false,
    "cleanlinessScore": 3,
    "tags": [],
    "sourceId": 114
  },
  {
    "nameZh": "牛頭角振華道巴士總站公廁",
    "nameEn": "",
    "districtZh": "牛頭角",
    "districtEn": "",
    "addressZh": "牛頭角振華道巴士總站",
    "addressEn": "",
    "latitude": 22.3154501,
    "longitude": 114.2191095,
    "openingHours": "24 小時開放的公廁",
    "accessible": false,
    "babyCare": false,
    "cleanlinessScore": 3,
    "tags": [],
    "sourceId": 133
  },
  {
    "nameZh": "牛頭角定富街公廁",
    "nameEn": "",
    "districtZh": "牛頭角",
    "districtEn": "",
    "addressZh": "牛頭角定富街1號",
    "addressEn": "",
    "latitude": 22.3175921,
    "longitude": 114.2165024,
    "openingHours": "24 小時開放的公廁",
    "accessible": false,
    "babyCare": false,
    "cleanlinessScore": 3,
    "tags": [],
    "sourceId": 127
  },
  {
    "nameZh": "柯士甸佐敦道公廁",
    "nameEn": "",
    "districtZh": "尖沙咀",
    "districtEn": "",
    "addressZh": "柯士甸佐敦道62號",
    "addressEn": "",
    "latitude": 22.3025498,
    "longitude": 114.1694478,
    "openingHours": "24 小時開放的公廁",
    "accessible": false,
    "babyCare": false,
    "cleanlinessScore": 3,
    "tags": [],
    "sourceId": 517
  },
  {
    "nameZh": "尖沙咀金巴利道公廁",
    "nameEn": "",
    "districtZh": "尖沙咀",
    "districtEn": "",
    "addressZh": "尖沙咀金巴利道",
    "addressEn": "",
    "latitude": 22.3001377,
    "longitude": 114.1722506,
    "openingHours": "24 小時開放的公廁",
    "accessible": false,
    "babyCare": false,
    "cleanlinessScore": 3,
    "tags": [],
    "sourceId": 516
  },
  {
    "nameZh": "西九龍站巴士總站公廁",
    "nameEn": "",
    "districtZh": "尖沙咀",
    "districtEn": "",
    "addressZh": "柯士甸連翔道西九龍站巴士總站",
    "addressEn": "",
    "latitude": 22.3079991,
    "longitude": 114.1644922,
    "openingHours": "24 小時開放的公廁",
    "accessible": false,
    "babyCare": false,
    "cleanlinessScore": 3,
    "tags": [],
    "sourceId": 515
  },
  {
    "nameZh": "尖沙咀東麼地道公共運輸交匯處公廁",
    "nameEn": "",
    "districtZh": "尖沙咀",
    "districtEn": "",
    "addressZh": "尖沙咀東麼地道公共運輸交匯處",
    "addressEn": "",
    "latitude": 22.2985604,
    "longitude": 114.1736032,
    "openingHours": "24 小時開放的公廁",
    "accessible": false,
    "babyCare": false,
    "cleanlinessScore": 3,
    "tags": [],
    "sourceId": 510
  },
  {
    "nameZh": "尖沙咀碼頭廣場公廁",
    "nameEn": "",
    "districtZh": "尖沙咀",
    "districtEn": "",
    "addressZh": "尖沙咀梳士巴利道碼頭廣場",
    "addressEn": "",
    "latitude": 22.2985604,
    "longitude": 114.1736032,
    "openingHours": "24 小時開放的公廁",
    "accessible": false,
    "babyCare": false,
    "cleanlinessScore": 3,
    "tags": [],
    "sourceId": 508
  },
  {
    "nameZh": "何文田培正道公廁",
    "nameEn": "",
    "districtZh": "何文田",
    "districtEn": "",
    "addressZh": "何文田培正道5號",
    "addressEn": "",
    "latitude": 22.3182224,
    "longitude": 114.1773499,
    "openingHours": "24 小時開放的公廁",
    "accessible": false,
    "babyCare": false,
    "cleanlinessScore": 3,
    "tags": [],
    "sourceId": 124
  },
  {
    "nameZh": "何文田必嘉街公廁",
    "nameEn": "",
    "districtZh": "何文田",
    "districtEn": "",
    "addressZh": "何文田必嘉街65號",
    "addressEn": "",
    "latitude": 22.3159018,
    "longitude": 114.1800713,
    "openingHours": "24 小時開放的公廁",
    "accessible": false,
    "babyCare": false,
    "cleanlinessScore": 3,
    "tags": [],
    "sourceId": 120
  },
  {
    "nameZh": "何文田機利士南路公廁",
    "nameEn": "",
    "districtZh": "何文田",
    "districtEn": "",
    "addressZh": "何文田機利士南路",
    "addressEn": "",
    "latitude": 22.3159018,
    "longitude": 114.1800713,
    "openingHours": "24 小時開放的公廁",
    "accessible": false,
    "babyCare": false,
    "cleanlinessScore": 3,
    "tags": [],
    "sourceId": 118
  },
  {
    "nameZh": "油麻地街市街公廁",
    "nameEn": "",
    "districtZh": "油麻地",
    "districtEn": "",
    "addressZh": "油麻地街市街10號",
    "addressEn": "",
    "latitude": 22.3156499,
    "longitude": 114.1670342,
    "openingHours": "24 小時開放的公廁",
    "accessible": false,
    "babyCare": false,
    "cleanlinessScore": 3,
    "tags": [],
    "sourceId": 514
  },
  {
    "nameZh": "油麻地上海街公廁",
    "nameEn": "",
    "districtZh": "油麻地",
    "districtEn": "",
    "addressZh": "油麻地上海街345A號",
    "addressEn": "",
    "latitude": 22.3093548,
    "longitude": 114.1698278,
    "openingHours": "24 小時開放的公廁",
    "accessible": false,
    "babyCare": false,
    "cleanlinessScore": 3,
    "tags": [],
    "sourceId": 511
  },
  {
    "nameZh": "油麻地街市公廁",
    "nameEn": "",
    "districtZh": "油麻地",
    "districtEn": "",
    "addressZh": "油麻地甘肅街20號油麻地街市",
    "addressEn": "",
    "latitude": 22.3092686,
    "longitude": 114.1684682,
    "openingHours": "24 小時開放的公廁",
    "accessible": false,
    "babyCare": false,
    "cleanlinessScore": 3,
    "tags": [],
    "sourceId": 509
  },
  {
    "nameZh": "新蒲崗康強街公廁",
    "nameEn": "",
    "districtZh": "新蒲崗",
    "districtEn": "",
    "addressZh": "新蒲崗康強街",
    "addressEn": "",
    "latitude": 22.336665,
    "longitude": 114.1984071,
    "openingHours": "24 小時開放的公廁",
    "accessible": false,
    "babyCare": false,
    "cleanlinessScore": 3,
    "tags": [],
    "sourceId": 488
  },
  {
    "nameZh": "鑽石山荷里活廣場公廁",
    "nameEn": "",
    "districtZh": "鑽石山",
    "districtEn": "",
    "addressZh": "鑽石山上元街荷里活廣場地下",
    "addressEn": "",
    "latitude": 22.3452225,
    "longitude": 114.2050982,
    "openingHours": "24 小時開放的公廁",
    "accessible": false,
    "babyCare": false,
    "cleanlinessScore": 3,
    "tags": [],
    "sourceId": 484
  },
  {
    "nameZh": "上水燕崗路遊樂場公廁",
    "nameEn": "",
    "districtZh": "上水",
    "districtEn": "",
    "addressZh": "上水燕崗路遊樂場藍球場",
    "addressEn": "",
    "latitude": 22.5014146,
    "longitude": 114.1287033,
    "openingHours": "24 小時開放的公廁",
    "accessible": false,
    "babyCare": false,
    "cleanlinessScore": 3,
    "tags": [],
    "sourceId": 238
  },
  {
    "nameZh": "上水燕崗路1巷公廁",
    "nameEn": "",
    "districtZh": "上水",
    "districtEn": "",
    "addressZh": "上水燕崗路1巷6號",
    "addressEn": "",
    "latitude": 22.5014146,
    "longitude": 114.1287033,
    "openingHours": "24 小時開放的公廁",
    "accessible": false,
    "babyCare": false,
    "cleanlinessScore": 3,
    "tags": [],
    "sourceId": 237
  },
  {
    "nameZh": "上水營盤新村公廁",
    "nameEn": "",
    "districtZh": "上水",
    "districtEn": "",
    "addressZh": "上水營盤新村44-64號",
    "addressEn": "",
    "latitude": 22.5014146,
    "longitude": 114.1287033,
    "openingHours": "24 小時開放的公廁",
    "accessible": false,
    "babyCare": false,
    "cleanlinessScore": 3,
    "tags": [],
    "sourceId": 236
  },
  {
    "nameZh": "上水營盤村上村15號側公廁",
    "nameEn": "",
    "districtZh": "上水",
    "districtEn": "",
    "addressZh": "上水粉錦公路營盤村上村15號",
    "addressEn": "",
    "latitude": 22.5014146,
    "longitude": 114.1287033,
    "openingHours": "24 小時開放的公廁",
    "accessible": false,
    "babyCare": false,
    "cleanlinessScore": 3,
    "tags": [],
    "sourceId": 235
  },
  {
    "nameZh": "上水唐公嶺公廁",
    "nameEn": "",
    "districtZh": "上水",
    "districtEn": "",
    "addressZh": "上水唐公嶺",
    "addressEn": "",
    "latitude": 22.3115282,
    "longitude": 114.2393082,
    "openingHours": "24 小時開放的公廁",
    "accessible": false,
    "babyCare": false,
    "cleanlinessScore": 3,
    "tags": [],
    "sourceId": 233
  },
  {
    "nameZh": "上水蕉徑路蕉徑老圍公廁",
    "nameEn": "",
    "districtZh": "上水",
    "districtEn": "",
    "addressZh": "上水蕉徑路蕉徑老圍",
    "addressEn": "",
    "latitude": 22.5014146,
    "longitude": 114.1287033,
    "openingHours": "24 小時開放的公廁",
    "accessible": false,
    "babyCare": false,
    "cleanlinessScore": 3,
    "tags": [],
    "sourceId": 232
  },
  {
    "nameZh": "上水蕉徑路蕉徑彭屋公廁",
    "nameEn": "",
    "districtZh": "上水",
    "districtEn": "",
    "addressZh": "上水蕉徑路蕉徑彭屋",
    "addressEn": "",
    "latitude": 22.5014146,
    "longitude": 114.1287033,
    "openingHours": "24 小時開放的公廁",
    "accessible": false,
    "babyCare": false,
    "cleanlinessScore": 3,
    "tags": [],
    "sourceId": 231
  },
  {
    "nameZh": "上水松栢塱村(北)公廁",
    "nameEn": "",
    "districtZh": "上水",
    "districtEn": "",
    "addressZh": "上水松栢塱村(北)",
    "addressEn": "",
    "latitude": 22.5060439,
    "longitude": 114.1226506,
    "openingHours": "24 小時開放的公廁",
    "accessible": false,
    "babyCare": false,
    "cleanlinessScore": 3,
    "tags": [],
    "sourceId": 230
  },
  {
    "nameZh": "上水松柏朗村(南)客家圍公廁",
    "nameEn": "",
    "districtZh": "上水",
    "districtEn": "",
    "addressZh": "上水松柏朗村(南)客家圍",
    "addressEn": "",
    "latitude": 22.5014146,
    "longitude": 114.1287033,
    "openingHours": "24 小時開放的公廁",
    "accessible": false,
    "babyCare": false,
    "cleanlinessScore": 3,
    "tags": [],
    "sourceId": 229
  },
  {
    "nameZh": "粉嶺萃雲路祠堂村公廁",
    "nameEn": "",
    "districtZh": "上水",
    "districtEn": "",
    "addressZh": "粉嶺萃雲路祠堂村",
    "addressEn": "",
    "latitude": 22.5014146,
    "longitude": 114.1287033,
    "openingHours": "24 小時開放的公廁",
    "accessible": false,
    "babyCare": false,
    "cleanlinessScore": 3,
    "tags": [],
    "sourceId": 227
  },
  {
    "nameZh": "上水華山村公廁",
    "nameEn": "",
    "districtZh": "上水",
    "districtEn": "",
    "addressZh": "上水華山村",
    "addressEn": "",
    "latitude": 22.5251423,
    "longitude": 114.1327563,
    "openingHours": "24 小時開放的公廁",
    "accessible": false,
    "babyCare": false,
    "cleanlinessScore": 3,
    "tags": [],
    "sourceId": 226
  },
  {
    "nameZh": "上水鄉遊樂場公廁",
    "nameEn": "",
    "districtZh": "上水",
    "districtEn": "",
    "addressZh": "上水圍莆上村上水鄉遊樂場",
    "addressEn": "",
    "latitude": 22.5014146,
    "longitude": 114.1287033,
    "openingHours": "24 小時開放的公廁",
    "accessible": false,
    "babyCare": false,
    "cleanlinessScore": 3,
    "tags": [],
    "sourceId": 225
  },
  {
    "nameZh": "上水上水圍上北村公廁",
    "nameEn": "",
    "districtZh": "上水",
    "districtEn": "",
    "addressZh": "上水上水圍上北村",
    "addressEn": "",
    "latitude": 22.5083608,
    "longitude": 114.1253001,
    "openingHours": "24 小時開放的公廁",
    "accessible": false,
    "babyCare": false,
    "cleanlinessScore": 3,
    "tags": [],
    "sourceId": 224
  },
  {
    "nameZh": "上水圍圍內村公廁",
    "nameEn": "",
    "districtZh": "上水",
    "districtEn": "",
    "addressZh": "上水圍圍內村",
    "addressEn": "",
    "latitude": 22.509638,
    "longitude": 114.123433,
    "openingHours": "24 小時開放的公廁",
    "accessible": false,
    "babyCare": false,
    "cleanlinessScore": 3,
    "tags": [],
    "sourceId": 223
  },
  {
    "nameZh": "上水新運路掃管埔村公廁",
    "nameEn": "",
    "districtZh": "上水",
    "districtEn": "",
    "addressZh": "上水新運路掃管埔村",
    "addressEn": "",
    "latitude": 22.5014146,
    "longitude": 114.1287033,
    "openingHours": "24 小時開放的公廁",
    "accessible": false,
    "babyCare": false,
    "cleanlinessScore": 3,
    "tags": [],
    "sourceId": 220
  },
  {
    "nameZh": "大埔黃宜坳村公廁",
    "nameEn": "",
    "districtZh": "大埔",
    "districtEn": "",
    "addressZh": "大埔黃宜坳路黃宜坳村",
    "addressEn": "",
    "latitude": 22.4423892,
    "longitude": 114.169317,
    "openingHours": "24 小時開放的公廁",
    "accessible": false,
    "babyCare": false,
    "cleanlinessScore": 3,
    "tags": [],
    "sourceId": 451
  },
  {
    "nameZh": "大埔魚角村公廁",
    "nameEn": "",
    "districtZh": "大埔",
    "districtEn": "",
    "addressZh": "大埔汀角路魚角村",
    "addressEn": "",
    "latitude": 22.4615231,
    "longitude": 114.1913269,
    "openingHours": "24 小時開放的公廁",
    "accessible": false,
    "babyCare": false,
    "cleanlinessScore": 3,
    "tags": [],
    "sourceId": 450
  },
  {
    "nameZh": "大埔大窩村公廁",
    "nameEn": "",
    "districtZh": "大埔",
    "districtEn": "",
    "addressZh": "大埔大窩東支路大窩村",
    "addressEn": "",
    "latitude": 22.4495907,
    "longitude": 114.1639734,
    "openingHours": "24 小時開放的公廁",
    "accessible": false,
    "babyCare": false,
    "cleanlinessScore": 3,
    "tags": [],
    "sourceId": 448
  },
  {
    "nameZh": "大埔達運道公廁",
    "nameEn": "",
    "districtZh": "大埔",
    "districtEn": "",
    "addressZh": "大埔達運道",
    "addressEn": "",
    "latitude": 22.4474689,
    "longitude": 114.169216,
    "openingHours": "24 小時開放的公廁",
    "accessible": false,
    "babyCare": false,
    "cleanlinessScore": 3,
    "tags": [],
    "sourceId": 446
  },
  {
    "nameZh": "大埔塘面村公廁",
    "nameEn": "",
    "districtZh": "大埔",
    "districtEn": "",
    "addressZh": "大埔塘面村",
    "addressEn": "",
    "latitude": 22.4494017,
    "longitude": 114.1711328,
    "openingHours": "24 小時開放的公廁",
    "accessible": false,
    "babyCare": false,
    "cleanlinessScore": 3,
    "tags": [],
    "sourceId": 445
  },
  {
    "nameZh": "大埔圍頭村公廁",
    "nameEn": "",
    "districtZh": "大埔",
    "districtEn": "",
    "addressZh": "大埔圍頭村",
    "addressEn": "",
    "latitude": 22.4483331,
    "longitude": 114.1637371,
    "openingHours": "24 小時開放的公廁",
    "accessible": false,
    "babyCare": false,
    "cleanlinessScore": 3,
    "tags": [],
    "sourceId": 444
  },
  {
    "nameZh": "大埔大庵村公廁",
    "nameEn": "",
    "districtZh": "大埔",
    "districtEn": "",
    "addressZh": "大埔坪朗路大庵村",
    "addressEn": "",
    "latitude": 22.4585208,
    "longitude": 114.1749134,
    "openingHours": "24 小時開放的公廁",
    "accessible": false,
    "babyCare": false,
    "cleanlinessScore": 3,
    "tags": [],
    "sourceId": 443
  },
  {
    "nameZh": "大埔中心第20座公廁",
    "nameEn": "",
    "districtZh": "大埔",
    "districtEn": "",
    "addressZh": "大埔中心第20座",
    "addressEn": "",
    "latitude": 22.4494017,
    "longitude": 114.1711328,
    "openingHours": "24 小時開放的公廁",
    "accessible": false,
    "babyCare": false,
    "cleanlinessScore": 3,
    "tags": [],
    "sourceId": 442
  },
  {
    "nameZh": "大埔大埔滘新圍公廁",
    "nameEn": "",
    "districtZh": "大埔",
    "districtEn": "",
    "addressZh": "大埔大埔滘新圍",
    "addressEn": "",
    "latitude": 22.4494017,
    "longitude": 114.1711328,
    "openingHours": "24 小時開放的公廁",
    "accessible": false,
    "babyCare": false,
    "cleanlinessScore": 3,
    "tags": [],
    "sourceId": 441
  },
  {
    "nameZh": "大埔墟雅運路港鐵站公廁",
    "nameEn": "",
    "districtZh": "大埔",
    "districtEn": "",
    "addressZh": "大埔墟雅運路港鐵站",
    "addressEn": "",
    "latitude": 22.4494017,
    "longitude": 114.1711328,
    "openingHours": "24 小時開放的公廁",
    "accessible": false,
    "babyCare": false,
    "cleanlinessScore": 3,
    "tags": [],
    "sourceId": 440
  },
  {
    "nameZh": "大埔尾村公廁",
    "nameEn": "",
    "districtZh": "大埔",
    "districtEn": "",
    "addressZh": "大埔尾村",
    "addressEn": "",
    "latitude": 22.4525412,
    "longitude": 114.1571036,
    "openingHours": "24 小時開放的公廁",
    "accessible": false,
    "babyCare": false,
    "cleanlinessScore": 3,
    "tags": [],
    "sourceId": 439
  },
  {
    "nameZh": "大埔舊墟公廁",
    "nameEn": "",
    "districtZh": "大埔",
    "districtEn": "",
    "addressZh": "大埔汀角路舊墟",
    "addressEn": "",
    "latitude": 22.456617,
    "longitude": 114.1684239,
    "openingHours": "24 小時開放的公廁",
    "accessible": false,
    "babyCare": false,
    "cleanlinessScore": 3,
    "tags": [],
    "sourceId": 438
  },
  {
    "nameZh": "大埔廣場公廁",
    "nameEn": "",
    "districtZh": "大埔",
    "districtEn": "",
    "addressZh": "大埔廣場",
    "addressEn": "",
    "latitude": 22.45294,
    "longitude": 114.1701688,
    "openingHours": "24 小時開放的公廁",
    "accessible": false,
    "babyCare": false,
    "cleanlinessScore": 3,
    "tags": [],
    "sourceId": 437
  },
  {
    "nameZh": "大埔頭村南公廁",
    "nameEn": "",
    "districtZh": "大埔",
    "districtEn": "",
    "addressZh": "大埔頭村南",
    "addressEn": "",
    "latitude": 22.4483331,
    "longitude": 114.1637371,
    "openingHours": "24 小時開放的公廁",
    "accessible": false,
    "babyCare": false,
    "cleanlinessScore": 3,
    "tags": [],
    "sourceId": 436
  },
  {
    "nameZh": "大埔大埔頭村公廁",
    "nameEn": "",
    "districtZh": "大埔",
    "districtEn": "",
    "addressZh": "大埔大埔頭徑大埔頭村",
    "addressEn": "",
    "latitude": 22.431073,
    "longitude": 114.2692875,
    "openingHours": "24 小時開放的公廁",
    "accessible": false,
    "babyCare": false,
    "cleanlinessScore": 3,
    "tags": [],
    "sourceId": 435
  },
  {
    "nameZh": "大埔三門仔村(北)公廁",
    "nameEn": "",
    "districtZh": "大圍",
    "districtEn": "",
    "addressZh": "大埔三門仔路三門仔村(北)",
    "addressEn": "",
    "latitude": 22.3730942,
    "longitude": 114.1788594,
    "openingHours": "24 小時開放的公廁",
    "accessible": false,
    "babyCare": false,
    "cleanlinessScore": 3,
    "tags": [],
    "sourceId": 420
  },
  {
    "nameZh": "大圍城河道公廁",
    "nameEn": "",
    "districtZh": "大圍",
    "districtEn": "",
    "addressZh": "大圍城河道31號",
    "addressEn": "",
    "latitude": 22.3094989,
    "longitude": 114.1877316,
    "openingHours": "24 小時開放的公廁",
    "accessible": false,
    "babyCare": false,
    "cleanlinessScore": 3,
    "tags": [],
    "sourceId": 340
  },
  {
    "nameZh": "港鐵大圍站公共交通交匯處公廁",
    "nameEn": "",
    "districtZh": "大圍",
    "districtEn": "",
    "addressZh": "港鐵大圍站公共交通交匯處",
    "addressEn": "",
    "latitude": 22.3730942,
    "longitude": 114.1788594,
    "openingHours": "24 小時開放的公廁",
    "accessible": false,
    "babyCare": false,
    "cleanlinessScore": 3,
    "tags": [],
    "sourceId": 338
  },
  {
    "nameZh": "大圍田心村停車場公廁",
    "nameEn": "",
    "districtZh": "大圍",
    "districtEn": "",
    "addressZh": "田心街田心村停車場",
    "addressEn": "",
    "latitude": 22.337988,
    "longitude": 114.1826259,
    "openingHours": "24 小時開放的公廁",
    "accessible": false,
    "babyCare": false,
    "cleanlinessScore": 3,
    "tags": [],
    "sourceId": 336
  },
  {
    "nameZh": "大圍車公廟曾大屋村公廁",
    "nameEn": "",
    "districtZh": "大圍",
    "districtEn": "",
    "addressZh": "大圍車公廟曾大屋村",
    "addressEn": "",
    "latitude": 22.3730942,
    "longitude": 114.1788594,
    "openingHours": "24 小時開放的公廁",
    "accessible": false,
    "babyCare": false,
    "cleanlinessScore": 3,
    "tags": [],
    "sourceId": 334
  },
  {
    "nameZh": "大圍車公廟沙田頭村公廁",
    "nameEn": "",
    "districtZh": "大圍",
    "districtEn": "",
    "addressZh": "大圍車公廟沙田頭村",
    "addressEn": "",
    "latitude": 22.3749091,
    "longitude": 114.1857738,
    "openingHours": "24 小時開放的公廁",
    "accessible": false,
    "babyCare": false,
    "cleanlinessScore": 3,
    "tags": [],
    "sourceId": 324
  },
  {
    "nameZh": "大圍下徑口村公廁",
    "nameEn": "",
    "districtZh": "大圍",
    "districtEn": "",
    "addressZh": "大圍富健街下徑口村",
    "addressEn": "",
    "latitude": 22.3678232,
    "longitude": 114.1595878,
    "openingHours": "24 小時開放的公廁",
    "accessible": false,
    "babyCare": false,
    "cleanlinessScore": 3,
    "tags": [],
    "sourceId": 316
  },
  {
    "nameZh": "大圍顯貴里公廁",
    "nameEn": "",
    "districtZh": "大圍",
    "districtEn": "",
    "addressZh": "大圍顯貴里",
    "addressEn": "",
    "latitude": 22.3730942,
    "longitude": 114.1788594,
    "openingHours": "24 小時開放的公廁",
    "accessible": false,
    "babyCare": false,
    "cleanlinessScore": 3,
    "tags": [],
    "sourceId": 315
  },
  {
    "nameZh": "大圍顯田街公廁",
    "nameEn": "",
    "districtZh": "大圍",
    "districtEn": "",
    "addressZh": "大圍顯田街",
    "addressEn": "",
    "latitude": 22.3678232,
    "longitude": 114.1595878,
    "openingHours": "24 小時開放的公廁",
    "accessible": false,
    "babyCare": false,
    "cleanlinessScore": 3,
    "tags": [],
    "sourceId": 314
  },
  {
    "nameZh": "大圍下隔田村公廁",
    "nameEn": "",
    "districtZh": "大圍",
    "districtEn": "",
    "addressZh": "大圍翠田街下隔田村",
    "addressEn": "",
    "latitude": 22.3762083,
    "longitude": 114.1880747,
    "openingHours": "24 小時開放的公廁",
    "accessible": false,
    "babyCare": false,
    "cleanlinessScore": 3,
    "tags": [],
    "sourceId": 313
  },
  {
    "nameZh": "元朗橫洲東頭村公廁",
    "nameEn": "",
    "districtZh": "元朗",
    "districtEn": "",
    "addressZh": "元朗橫洲東頭村",
    "addressEn": "",
    "latitude": 22.4510362,
    "longitude": 114.0292992,
    "openingHours": "24 小時開放的公廁",
    "accessible": false,
    "babyCare": false,
    "cleanlinessScore": 3,
    "tags": [],
    "sourceId": 673
  },
  {
    "nameZh": "元朗八鄉元崗新村公廁",
    "nameEn": "",
    "districtZh": "元朗",
    "districtEn": "",
    "addressZh": "元朗八鄉八鄉路元崗新村",
    "addressEn": "",
    "latitude": 22.4462068,
    "longitude": 114.0352848,
    "openingHours": "24 小時開放的公廁",
    "accessible": false,
    "babyCare": false,
    "cleanlinessScore": 3,
    "tags": [],
    "sourceId": 672
  },
  {
    "nameZh": "元朗英龍圍公廁",
    "nameEn": "",
    "districtZh": "元朗",
    "districtEn": "",
    "addressZh": "元朗朗和路英龍圍",
    "addressEn": "",
    "latitude": 22.4462068,
    "longitude": 114.0352848,
    "openingHours": "24 小時開放的公廁",
    "accessible": false,
    "babyCare": false,
    "cleanlinessScore": 3,
    "tags": [],
    "sourceId": 671
  },
  {
    "nameZh": "元朗楊屋村公廁",
    "nameEn": "",
    "districtZh": "元朗",
    "districtEn": "",
    "addressZh": "元朗福喜街橫洲楊屋村",
    "addressEn": "",
    "latitude": 22.4510362,
    "longitude": 114.0292992,
    "openingHours": "24 小時開放的公廁",
    "accessible": false,
    "babyCare": false,
    "cleanlinessScore": 3,
    "tags": [],
    "sourceId": 670
  },
  {
    "nameZh": "元朗新田仁壽圍公廁",
    "nameEn": "",
    "districtZh": "元朗",
    "districtEn": "",
    "addressZh": "元朗新田青山公路-新田段仁壽圍",
    "addressEn": "",
    "latitude": 22.5021822,
    "longitude": 114.0785032,
    "openingHours": "24 小時開放的公廁",
    "accessible": false,
    "babyCare": false,
    "cleanlinessScore": 3,
    "tags": [],
    "sourceId": 669
  },
  {
    "nameZh": "元朗黃屋村公廁",
    "nameEn": "",
    "districtZh": "元朗",
    "districtEn": "",
    "addressZh": "元朗朗和路黃屋村",
    "addressEn": "",
    "latitude": 22.4453529,
    "longitude": 114.0351224,
    "openingHours": "24 小時開放的公廁",
    "accessible": false,
    "babyCare": false,
    "cleanlinessScore": 3,
    "tags": [],
    "sourceId": 668
  },
  {
    "nameZh": "元朗十八鄉黃泥墩村公廁",
    "nameEn": "",
    "districtZh": "元朗",
    "districtEn": "",
    "addressZh": "元朗十八鄉水蕉新村路黃泥墩村",
    "addressEn": "",
    "latitude": 22.4462068,
    "longitude": 114.0352848,
    "openingHours": "24 小時開放的公廁",
    "accessible": false,
    "babyCare": false,
    "cleanlinessScore": 3,
    "tags": [],
    "sourceId": 667
  },
  {
    "nameZh": "元朗新田永平村公廁",
    "nameEn": "",
    "districtZh": "元朗",
    "districtEn": "",
    "addressZh": "元朗新田青山公路-新田段永平村",
    "addressEn": "",
    "latitude": 22.5021822,
    "longitude": 114.0785032,
    "openingHours": "24 小時開放的公廁",
    "accessible": false,
    "babyCare": false,
    "cleanlinessScore": 3,
    "tags": [],
    "sourceId": 666
  },
  {
    "nameZh": "元朗屏山永寧村公廁",
    "nameEn": "",
    "districtZh": "元朗",
    "districtEn": "",
    "addressZh": "元朗屏山庸園路永寧村",
    "addressEn": "",
    "latitude": 22.440818,
    "longitude": 114.015383,
    "openingHours": "24 小時開放的公廁",
    "accessible": false,
    "babyCare": false,
    "cleanlinessScore": 3,
    "tags": [],
    "sourceId": 665
  },
  {
    "nameZh": "元朗東頭工業區公廁",
    "nameEn": "",
    "districtZh": "元朗",
    "districtEn": "",
    "addressZh": "元朗宏業東街東頭工業區",
    "addressEn": "",
    "latitude": 22.4552546,
    "longitude": 114.0325993,
    "openingHours": "24 小時開放的公廁",
    "accessible": false,
    "babyCare": false,
    "cleanlinessScore": 3,
    "tags": [],
    "sourceId": 664
  },
  {
    "nameZh": "元朗八鄉橫台山遊樂場公廁",
    "nameEn": "",
    "districtZh": "元朗",
    "districtEn": "",
    "addressZh": "元朗八鄉橫台山散村路橫台山永寧里橫台山遊樂場",
    "addressEn": "",
    "latitude": 22.4462068,
    "longitude": 114.0352848,
    "openingHours": "24 小時開放的公廁",
    "accessible": false,
    "babyCare": false,
    "cleanlinessScore": 3,
    "tags": [],
    "sourceId": 663
  },
  {
    "nameZh": "元朗八鄉橫台山散村公廁",
    "nameEn": "",
    "districtZh": "元朗",
    "districtEn": "",
    "addressZh": "元朗八鄉橫台山散村",
    "addressEn": "",
    "latitude": 22.4462068,
    "longitude": 114.0352848,
    "openingHours": "24 小時開放的公廁",
    "accessible": false,
    "babyCare": false,
    "cleanlinessScore": 3,
    "tags": [],
    "sourceId": 662
  },
  {
    "nameZh": "元朗八鄉杜屋村公廁",
    "nameEn": "",
    "districtZh": "元朗",
    "districtEn": "",
    "addressZh": "元朗八鄉錦上路杜屋村",
    "addressEn": "",
    "latitude": 22.4462068,
    "longitude": 114.0352848,
    "openingHours": "24 小時開放的公廁",
    "accessible": false,
    "babyCare": false,
    "cleanlinessScore": 3,
    "tags": [],
    "sourceId": 661
  },
  {
    "nameZh": "元朗十八鄉塘頭埔村公廁",
    "nameEn": "",
    "districtZh": "元朗",
    "districtEn": "",
    "addressZh": "元朗十八鄉大樹下東路塘頭埔村",
    "addressEn": "",
    "latitude": 22.4462068,
    "longitude": 114.0352848,
    "openingHours": "24 小時開放的公廁",
    "accessible": false,
    "babyCare": false,
    "cleanlinessScore": 3,
    "tags": [],
    "sourceId": 660
  },
  {
    "nameZh": "元朗八鄉曾屋村公廁",
    "nameEn": "",
    "districtZh": "元朗",
    "districtEn": "",
    "addressZh": "元朗八鄉錦上路上村曾屋村",
    "addressEn": "",
    "latitude": 22.4462068,
    "longitude": 114.0352848,
    "openingHours": "24 小時開放的公廁",
    "accessible": false,
    "babyCare": false,
    "cleanlinessScore": 3,
    "tags": [],
    "sourceId": 659
  },
  {
    "nameZh": "上水古洞草地足球場公廁",
    "nameEn": "",
    "districtZh": "古洞",
    "districtEn": "",
    "addressZh": "上水河上鄉路古洞草地足球場",
    "addressEn": "",
    "latitude": 22.5051828,
    "longitude": 114.100678,
    "openingHours": "24 小時開放的公廁",
    "accessible": false,
    "babyCare": false,
    "cleanlinessScore": 3,
    "tags": [],
    "sourceId": 216
  },
  {
    "nameZh": "上水古洞龍騰閣公廁",
    "nameEn": "",
    "districtZh": "古洞",
    "districtEn": "",
    "addressZh": "上水古洞青山公路古洞段龍騰閣",
    "addressEn": "",
    "latitude": 22.5051828,
    "longitude": 114.100678,
    "openingHours": "24 小時開放的公廁",
    "accessible": false,
    "babyCare": false,
    "cleanlinessScore": 3,
    "tags": [],
    "sourceId": 190
  },
  {
    "nameZh": "上水古洞南路公廁",
    "nameEn": "",
    "districtZh": "古洞",
    "districtEn": "",
    "addressZh": "上水古洞南路水塘坑",
    "addressEn": "",
    "latitude": 22.5051828,
    "longitude": 114.100678,
    "openingHours": "24 小時開放的公廁",
    "accessible": false,
    "babyCare": false,
    "cleanlinessScore": 3,
    "tags": [],
    "sourceId": 188
  },
  {
    "nameZh": "上水古洞田心公廁",
    "nameEn": "",
    "districtZh": "古洞",
    "districtEn": "",
    "addressZh": "上水古洞田心琉森大道",
    "addressEn": "",
    "latitude": 22.4953964,
    "longitude": 114.0999189,
    "openingHours": "24 小時開放的公廁",
    "accessible": false,
    "babyCare": false,
    "cleanlinessScore": 3,
    "tags": [],
    "sourceId": 187
  },
  {
    "nameZh": "上水古洞調源公廁",
    "nameEn": "",
    "districtZh": "古洞",
    "districtEn": "",
    "addressZh": "上水古洞調源",
    "addressEn": "",
    "latitude": 22.5051828,
    "longitude": 114.100678,
    "openingHours": "24 小時開放的公廁",
    "accessible": false,
    "babyCare": false,
    "cleanlinessScore": 3,
    "tags": [],
    "sourceId": 186
  },
  {
    "nameZh": "上水古洞馬草壟路公廁",
    "nameEn": "",
    "districtZh": "古洞",
    "districtEn": "",
    "addressZh": "上水古洞馬草壟路",
    "addressEn": "",
    "latitude": 22.5051828,
    "longitude": 114.100678,
    "openingHours": "24 小時開放的公廁",
    "accessible": false,
    "babyCare": false,
    "cleanlinessScore": 3,
    "tags": [],
    "sourceId": 185
  },
  {
    "nameZh": "上水古洞村公所公廁",
    "nameEn": "",
    "districtZh": "古洞",
    "districtEn": "",
    "addressZh": "上水古洞村公所",
    "addressEn": "",
    "latitude": 22.5051828,
    "longitude": 114.100678,
    "openingHours": "24 小時開放的公廁",
    "accessible": false,
    "babyCare": false,
    "cleanlinessScore": 3,
    "tags": [],
    "sourceId": 184
  },
  {
    "nameZh": "屯門紫田路公廁",
    "nameEn": "",
    "districtZh": "屯門",
    "districtEn": "",
    "addressZh": "屯門紫田路",
    "addressEn": "",
    "latitude": 22.414279,
    "longitude": 113.974693,
    "openingHours": "24 小時開放的公廁",
    "accessible": false,
    "babyCare": false,
    "cleanlinessScore": 3,
    "tags": [],
    "sourceId": 385
  },
  {
    "nameZh": "屯子圍藍地菜站公廁",
    "nameEn": "",
    "districtZh": "屯門",
    "districtEn": "",
    "addressZh": "屯子圍藍地菜站",
    "addressEn": "",
    "latitude": 22.418428,
    "longitude": 113.981857,
    "openingHours": "24 小時開放的公廁",
    "accessible": false,
    "babyCare": false,
    "cleanlinessScore": 3,
    "tags": [],
    "sourceId": 384
  },
  {
    "nameZh": "屯門屯子圍公廁",
    "nameEn": "",
    "districtZh": "屯門",
    "districtEn": "",
    "addressZh": "屯門屯子圍",
    "addressEn": "",
    "latitude": 22.413637,
    "longitude": 113.9796718,
    "openingHours": "24 小時開放的公廁",
    "accessible": false,
    "babyCare": false,
    "cleanlinessScore": 3,
    "tags": [],
    "sourceId": 383
  },
  {
    "nameZh": "屯門水塘路和平新村公廁",
    "nameEn": "",
    "districtZh": "屯門",
    "districtEn": "",
    "addressZh": "屯門水塘路和平新村",
    "addressEn": "",
    "latitude": 22.3948714,
    "longitude": 113.9730054,
    "openingHours": "24 小時開放的公廁",
    "accessible": false,
    "babyCare": false,
    "cleanlinessScore": 3,
    "tags": [],
    "sourceId": 382
  },
  {
    "nameZh": "屯門湖山路公廁",
    "nameEn": "",
    "districtZh": "屯門",
    "districtEn": "",
    "addressZh": "屯門湖山路",
    "addressEn": "",
    "latitude": 22.4135377,
    "longitude": 113.9828786,
    "openingHours": "24 小時開放的公廁",
    "accessible": false,
    "babyCare": false,
    "cleanlinessScore": 3,
    "tags": [],
    "sourceId": 381
  },
  {
    "nameZh": "屯門大欖胡屋村公廁",
    "nameEn": "",
    "districtZh": "屯門",
    "districtEn": "",
    "addressZh": "屯門聯泰街大欖胡屋村",
    "addressEn": "",
    "latitude": 22.3593702,
    "longitude": 114.0183454,
    "openingHours": "24 小時開放的公廁",
    "accessible": false,
    "babyCare": false,
    "cleanlinessScore": 3,
    "tags": [],
    "sourceId": 380
  },
  {
    "nameZh": "屯門楊景路楊小坑村公廁",
    "nameEn": "",
    "districtZh": "屯門",
    "districtEn": "",
    "addressZh": "屯門楊景路楊小坑村",
    "addressEn": "",
    "latitude": 22.3948714,
    "longitude": 113.9730054,
    "openingHours": "24 小時開放的公廁",
    "accessible": false,
    "babyCare": false,
    "cleanlinessScore": 3,
    "tags": [],
    "sourceId": 379
  },
  {
    "nameZh": "屯門業旺路南豐工業城公廁",
    "nameEn": "",
    "districtZh": "屯門",
    "districtEn": "",
    "addressZh": "屯門業旺路南豐工業城",
    "addressEn": "",
    "latitude": 22.3948714,
    "longitude": 113.9730054,
    "openingHours": "24 小時開放的公廁",
    "accessible": false,
    "babyCare": false,
    "cleanlinessScore": 3,
    "tags": [],
    "sourceId": 378
  },
  {
    "nameZh": "屯門田心新村公廁",
    "nameEn": "",
    "districtZh": "屯門",
    "districtEn": "",
    "addressZh": "屯門田廈路田心新村",
    "addressEn": "",
    "latitude": 22.3803624,
    "longitude": 114.1657884,
    "openingHours": "24 小時開放的公廁",
    "accessible": false,
    "babyCare": false,
    "cleanlinessScore": 3,
    "tags": [],
    "sourceId": 377
  },
  {
    "nameZh": "屯門天地人路公廁",
    "nameEn": "",
    "districtZh": "屯門",
    "districtEn": "",
    "addressZh": "屯門天地人路",
    "addressEn": "",
    "latitude": 22.3948714,
    "longitude": 113.9730054,
    "openingHours": "24 小時開放的公廁",
    "accessible": false,
    "babyCare": false,
    "cleanlinessScore": 3,
    "tags": [],
    "sourceId": 376
  },
  {
    "nameZh": "屯門桃園圍公廁",
    "nameEn": "",
    "districtZh": "屯門",
    "districtEn": "",
    "addressZh": "屯門桃勵路桃園圍",
    "addressEn": "",
    "latitude": 22.4135377,
    "longitude": 113.9828786,
    "openingHours": "24 小時開放的公廁",
    "accessible": false,
    "babyCare": false,
    "cleanlinessScore": 3,
    "tags": [],
    "sourceId": 375
  },
  {
    "nameZh": "屯門井頭中村公廁",
    "nameEn": "",
    "districtZh": "屯門",
    "districtEn": "",
    "addressZh": "屯門井頭中村",
    "addressEn": "",
    "latitude": 22.3948714,
    "longitude": 113.9730054,
    "openingHours": "24 小時開放的公廁",
    "accessible": false,
    "babyCare": false,
    "cleanlinessScore": 3,
    "tags": [],
    "sourceId": 374
  },
  {
    "nameZh": "屯門青磚圍路公廁",
    "nameEn": "",
    "districtZh": "屯門",
    "districtEn": "",
    "addressZh": "屯門青磚圍路",
    "addressEn": "",
    "latitude": 22.3948714,
    "longitude": 113.9730054,
    "openingHours": "24 小時開放的公廁",
    "accessible": false,
    "babyCare": false,
    "cleanlinessScore": 3,
    "tags": [],
    "sourceId": 373
  },
  {
    "nameZh": "屯門青楊街公衆停車場公廁",
    "nameEn": "",
    "districtZh": "屯門",
    "districtEn": "",
    "addressZh": "屯門青楊街公衆停車場",
    "addressEn": "",
    "latitude": 22.3992201,
    "longitude": 113.9705161,
    "openingHours": "24 小時開放的公廁",
    "accessible": false,
    "babyCare": false,
    "cleanlinessScore": 3,
    "tags": [],
    "sourceId": 372
  },
  {
    "nameZh": "屯門紫田村垃圾站公廁",
    "nameEn": "",
    "districtZh": "屯門",
    "districtEn": "",
    "addressZh": "屯門子田園路紫田村垃圾站",
    "addressEn": "",
    "latitude": 22.3948714,
    "longitude": 113.9730054,
    "openingHours": "24 小時開放的公廁",
    "accessible": false,
    "babyCare": false,
    "cleanlinessScore": 3,
    "tags": [],
    "sourceId": 371
  },
  {
    "nameZh": "火炭禾寮坑路公廁",
    "nameEn": "",
    "districtZh": "火炭",
    "districtEn": "",
    "addressZh": "火炭禾寮坑路30號",
    "addressEn": "",
    "latitude": 22.3936158,
    "longitude": 114.2020571,
    "openingHours": "24 小時開放的公廁",
    "accessible": false,
    "babyCare": false,
    "cleanlinessScore": 3,
    "tags": [],
    "sourceId": 332
  },
  {
    "nameZh": "火炭禾寮坑村公廁",
    "nameEn": "",
    "districtZh": "火炭",
    "districtEn": "",
    "addressZh": "火炭禾寮坑路禾寮坑村",
    "addressEn": "",
    "latitude": 22.337988,
    "longitude": 114.1826259,
    "openingHours": "24 小時開放的公廁",
    "accessible": false,
    "babyCare": false,
    "cleanlinessScore": 3,
    "tags": [],
    "sourceId": 331
  },
  {
    "nameZh": "山尾街火炭熟食市場公廁",
    "nameEn": "",
    "districtZh": "火炭",
    "districtEn": "",
    "addressZh": "山尾街火炭熟食市場",
    "addressEn": "",
    "latitude": 22.3951537,
    "longitude": 114.1981013,
    "openingHours": "24 小時開放的公廁",
    "accessible": false,
    "babyCare": false,
    "cleanlinessScore": 3,
    "tags": [],
    "sourceId": 323
  },
  {
    "nameZh": "火炭長瀝尾街公廁",
    "nameEn": "",
    "districtZh": "火炭",
    "districtEn": "",
    "addressZh": "火炭長瀝尾街",
    "addressEn": "",
    "latitude": 22.3951537,
    "longitude": 114.1981013,
    "openingHours": "24 小時開放的公廁",
    "accessible": false,
    "babyCare": false,
    "cleanlinessScore": 3,
    "tags": [],
    "sourceId": 318
  },
  {
    "nameZh": "火炭村山尾街公廁",
    "nameEn": "",
    "districtZh": "火炭",
    "districtEn": "",
    "addressZh": "火炭村山尾街",
    "addressEn": "",
    "latitude": 22.3926954,
    "longitude": 114.1897327,
    "openingHours": "24 小時開放的公廁",
    "accessible": false,
    "babyCare": false,
    "cleanlinessScore": 3,
    "tags": [],
    "sourceId": 317
  },
  {
    "nameZh": "火炭桂地街公廁",
    "nameEn": "",
    "districtZh": "火炭",
    "districtEn": "",
    "addressZh": "火炭桂地街10-14號",
    "addressEn": "",
    "latitude": 22.3999079,
    "longitude": 114.192698,
    "openingHours": "24 小時開放的公廁",
    "accessible": false,
    "babyCare": false,
    "cleanlinessScore": 3,
    "tags": [],
    "sourceId": 312
  },
  {
    "nameZh": "西貢榕樹澳村口公廁",
    "nameEn": "",
    "districtZh": "西貢",
    "districtEn": "",
    "addressZh": "西貢榕樹澳村口",
    "addressEn": "",
    "latitude": 22.3822489,
    "longitude": 114.2728277,
    "openingHours": "24 小時開放的公廁",
    "accessible": false,
    "babyCare": false,
    "cleanlinessScore": 3,
    "tags": [],
    "sourceId": 449
  },
  {
    "nameZh": "西貢蛋家灣公廁",
    "nameEn": "",
    "districtZh": "西貢",
    "districtEn": "",
    "addressZh": "西貢蛋家灣",
    "addressEn": "",
    "latitude": 22.3822489,
    "longitude": 114.2728277,
    "openingHours": "24 小時開放的公廁",
    "accessible": false,
    "babyCare": false,
    "cleanlinessScore": 3,
    "tags": [],
    "sourceId": 447
  },
  {
    "nameZh": "西貢大洞村公廁",
    "nameEn": "",
    "districtZh": "西貢",
    "districtEn": "",
    "addressZh": "西貢大洞村",
    "addressEn": "",
    "latitude": 22.2559521,
    "longitude": 114.2402936,
    "openingHours": "24 小時開放的公廁",
    "accessible": false,
    "babyCare": false,
    "cleanlinessScore": 3,
    "tags": [],
    "sourceId": 434
  },
  {
    "nameZh": "西貢高塘下洋公廁",
    "nameEn": "",
    "districtZh": "西貢",
    "districtEn": "",
    "addressZh": "西貢北潭路高塘下洋",
    "addressEn": "",
    "latitude": 22.3822489,
    "longitude": 114.2728277,
    "openingHours": "24 小時開放的公廁",
    "accessible": false,
    "babyCare": false,
    "cleanlinessScore": 3,
    "tags": [],
    "sourceId": 414
  },
  {
    "nameZh": "西貢泥涌碼頭公廁",
    "nameEn": "",
    "districtZh": "西貢",
    "districtEn": "",
    "addressZh": "西貢年明路泥涌碼頭",
    "addressEn": "",
    "latitude": 22.2810536,
    "longitude": 113.935627,
    "openingHours": "24 小時開放的公廁",
    "accessible": false,
    "babyCare": false,
    "cleanlinessScore": 3,
    "tags": [],
    "sourceId": 409
  },
  {
    "nameZh": "西貢白沙澳公廁",
    "nameEn": "",
    "districtZh": "西貢",
    "districtEn": "",
    "addressZh": "西貢白沙澳",
    "addressEn": "",
    "latitude": 22.431401,
    "longitude": 114.248128,
    "openingHours": "24 小時開放的公廁",
    "accessible": false,
    "babyCare": false,
    "cleanlinessScore": 3,
    "tags": [],
    "sourceId": 405
  },
  {
    "nameZh": "西貢海下路海下村公廁",
    "nameEn": "",
    "districtZh": "西貢",
    "districtEn": "",
    "addressZh": "西貢海下路海下村",
    "addressEn": "",
    "latitude": 22.3739663,
    "longitude": 114.1197558,
    "openingHours": "24 小時開放的公廁",
    "accessible": false,
    "babyCare": false,
    "cleanlinessScore": 3,
    "tags": [],
    "sourceId": 400
  },
  {
    "nameZh": "西貢企嶺下老圍公廁",
    "nameEn": "",
    "districtZh": "西貢",
    "districtEn": "",
    "addressZh": "西貢企嶺下老圍",
    "addressEn": "",
    "latitude": 22.4178621,
    "longitude": 114.2676883,
    "openingHours": "24 小時開放的公廁",
    "accessible": false,
    "babyCare": false,
    "cleanlinessScore": 3,
    "tags": [],
    "sourceId": 397
  },
  {
    "nameZh": "西貢企嶺下新圍公廁",
    "nameEn": "",
    "districtZh": "西貢",
    "districtEn": "",
    "addressZh": "西貢企嶺下新圍",
    "addressEn": "",
    "latitude": 22.4161181,
    "longitude": 114.0431312,
    "openingHours": "24 小時開放的公廁",
    "accessible": false,
    "babyCare": false,
    "cleanlinessScore": 3,
    "tags": [],
    "sourceId": 396
  },
  {
    "nameZh": "西貢高流灣碼頭公廁",
    "nameEn": "",
    "districtZh": "西貢",
    "districtEn": "",
    "addressZh": "西貢高流灣碼頭",
    "addressEn": "",
    "latitude": 22.3822489,
    "longitude": 114.2728277,
    "openingHours": "24 小時開放的公廁",
    "accessible": false,
    "babyCare": false,
    "cleanlinessScore": 3,
    "tags": [],
    "sourceId": 395
  },
  {
    "nameZh": "西貢高流灣公廁",
    "nameEn": "",
    "districtZh": "西貢",
    "districtEn": "",
    "addressZh": "西貢高流灣11號屋",
    "addressEn": "",
    "latitude": 22.3822489,
    "longitude": 114.2728277,
    "openingHours": "24 小時開放的公廁",
    "accessible": false,
    "babyCare": false,
    "cleanlinessScore": 3,
    "tags": [],
    "sourceId": 394
  },
  {
    "nameZh": "西貢輋下村公廁",
    "nameEn": "",
    "districtZh": "西貢",
    "districtEn": "",
    "addressZh": "西貢輋下村",
    "addressEn": "",
    "latitude": 22.3843541,
    "longitude": 114.2737719,
    "openingHours": "24 小時開放的公廁",
    "accessible": false,
    "babyCare": false,
    "cleanlinessScore": 3,
    "tags": [],
    "sourceId": 390
  },
  {
    "nameZh": "麥里浩徑赤徑公廁",
    "nameEn": "",
    "districtZh": "西貢",
    "districtEn": "",
    "addressZh": "麥里浩徑2段赤徑",
    "addressEn": "",
    "latitude": 22.3822489,
    "longitude": 114.2728277,
    "openingHours": "24 小時開放的公廁",
    "accessible": false,
    "babyCare": false,
    "cleanlinessScore": 3,
    "tags": [],
    "sourceId": 389
  },
  {
    "nameZh": "西貢井欄樹公廁",
    "nameEn": "",
    "districtZh": "西貢",
    "districtEn": "",
    "addressZh": "西貢清水灣道井欄樹",
    "addressEn": "",
    "latitude": 22.3339457,
    "longitude": 114.2345665,
    "openingHours": "24 小時開放的公廁",
    "accessible": false,
    "babyCare": false,
    "cleanlinessScore": 3,
    "tags": [],
    "sourceId": 310
  },
  {
    "nameZh": "西貢早禾坑公廁",
    "nameEn": "",
    "districtZh": "西貢",
    "districtEn": "",
    "addressZh": "西貢大灣仔路早禾坑",
    "addressEn": "",
    "latitude": 22.390349,
    "longitude": 114.2968912,
    "openingHours": "24 小時開放的公廁",
    "accessible": false,
    "babyCare": false,
    "cleanlinessScore": 3,
    "tags": [],
    "sourceId": 306
  },
  {
    "nameZh": "第一城小瀝源村公廁",
    "nameEn": "",
    "districtZh": "沙田",
    "districtEn": "",
    "addressZh": "第一城小瀝源村",
    "addressEn": "",
    "latitude": 22.387201,
    "longitude": 114.2047873,
    "openingHours": "24 小時開放的公廁",
    "accessible": false,
    "babyCare": false,
    "cleanlinessScore": 3,
    "tags": [],
    "sourceId": 339
  },
  {
    "nameZh": "沙田田寮村公廁",
    "nameEn": "",
    "districtZh": "沙田",
    "districtEn": "",
    "addressZh": "沙田田寮村",
    "addressEn": "",
    "latitude": 22.3773544,
    "longitude": 114.1853864,
    "openingHours": "24 小時開放的公廁",
    "accessible": false,
    "babyCare": false,
    "cleanlinessScore": 3,
    "tags": [],
    "sourceId": 337
  },
  {
    "nameZh": "大學站單車匯合中心公廁",
    "nameEn": "",
    "districtZh": "沙田",
    "districtEn": "",
    "addressZh": "沙田澤祥街大學站單車匯合中心",
    "addressEn": "",
    "latitude": 22.4141553,
    "longitude": 114.2105501,
    "openingHours": "24 小時開放的公廁",
    "accessible": false,
    "babyCare": false,
    "cleanlinessScore": 3,
    "tags": [],
    "sourceId": 333
  },
  {
    "nameZh": "第一城黃泥頭村公廁",
    "nameEn": "",
    "districtZh": "沙田",
    "districtEn": "",
    "addressZh": "第一城廣榮里黃泥頭村",
    "addressEn": "",
    "latitude": 22.3815527,
    "longitude": 114.1904697,
    "openingHours": "24 小時開放的公廁",
    "accessible": false,
    "babyCare": false,
    "cleanlinessScore": 3,
    "tags": [],
    "sourceId": 330
  },
  {
    "nameZh": "馬料水白石角海濱公廁",
    "nameEn": "",
    "districtZh": "沙田",
    "districtEn": "",
    "addressZh": "馬料水白石角海濱",
    "addressEn": "",
    "latitude": 22.3815527,
    "longitude": 114.1904697,
    "openingHours": "24 小時開放的公廁",
    "accessible": false,
    "babyCare": false,
    "cleanlinessScore": 3,
    "tags": [],
    "sourceId": 329
  },
  {
    "nameZh": "吐露港公路馬料水碼頭公廁",
    "nameEn": "",
    "districtZh": "沙田",
    "districtEn": "",
    "addressZh": "吐露港公路馬料水碼頭",
    "addressEn": "",
    "latitude": 22.4555659,
    "longitude": 114.1504728,
    "openingHours": "24 小時開放的公廁",
    "accessible": false,
    "babyCare": false,
    "cleanlinessScore": 3,
    "tags": [],
    "sourceId": 328
  },
  {
    "nameZh": "沙田圍路牛皮沙村公廁",
    "nameEn": "",
    "districtZh": "沙田",
    "districtEn": "",
    "addressZh": "沙田圍路牛皮沙村",
    "addressEn": "",
    "latitude": 22.3818469,
    "longitude": 114.2100639,
    "openingHours": "24 小時開放的公廁",
    "accessible": false,
    "babyCare": false,
    "cleanlinessScore": 3,
    "tags": [],
    "sourceId": 326
  },
  {
    "nameZh": "沙田馬料水科學園路公廁",
    "nameEn": "",
    "districtZh": "沙田",
    "districtEn": "",
    "addressZh": "沙田馬料水科學園路",
    "addressEn": "",
    "latitude": 22.418687,
    "longitude": 114.2144445,
    "openingHours": "24 小時開放的公廁",
    "accessible": false,
    "babyCare": false,
    "cleanlinessScore": 3,
    "tags": [],
    "sourceId": 325
  },
  {
    "nameZh": "沙田坳道十二笏村公廁",
    "nameEn": "",
    "districtZh": "沙田",
    "districtEn": "",
    "addressZh": "沙田坳道十二笏村",
    "addressEn": "",
    "latitude": 22.3815527,
    "longitude": 114.1904697,
    "openingHours": "24 小時開放的公廁",
    "accessible": false,
    "babyCare": false,
    "cleanlinessScore": 3,
    "tags": [],
    "sourceId": 322
  },
  {
    "nameZh": "沙田石古壟村公廁",
    "nameEn": "",
    "districtZh": "沙田",
    "districtEn": "",
    "addressZh": "沙田石古壟村",
    "addressEn": "",
    "latitude": 22.3849361,
    "longitude": 114.2246813,
    "openingHours": "24 小時開放的公廁",
    "accessible": false,
    "babyCare": false,
    "cleanlinessScore": 3,
    "tags": [],
    "sourceId": 321
  },
  {
    "nameZh": "沙田上排頭村公廁",
    "nameEn": "",
    "districtZh": "沙田",
    "districtEn": "",
    "addressZh": "沙田上排頭村",
    "addressEn": "",
    "latitude": 22.3926954,
    "longitude": 114.1897327,
    "openingHours": "24 小時開放的公廁",
    "accessible": false,
    "babyCare": false,
    "cleanlinessScore": 3,
    "tags": [],
    "sourceId": 320
  },
  {
    "nameZh": "沙田第一城插桅桿村公廁",
    "nameEn": "",
    "districtZh": "沙田",
    "districtEn": "",
    "addressZh": "沙田第一城插桅桿村",
    "addressEn": "",
    "latitude": 22.3871423,
    "longitude": 114.2023207,
    "openingHours": "24 小時開放的公廁",
    "accessible": false,
    "babyCare": false,
    "cleanlinessScore": 3,
    "tags": [],
    "sourceId": 319
  },
  {
    "nameZh": "沙田觀音山村公廁",
    "nameEn": "",
    "districtZh": "沙田",
    "districtEn": "",
    "addressZh": "沙田觀坪路觀音山村",
    "addressEn": "",
    "latitude": 22.3649079,
    "longitude": 114.2112036,
    "openingHours": "24 小時開放的公廁",
    "accessible": false,
    "babyCare": false,
    "cleanlinessScore": 3,
    "tags": [],
    "sourceId": 311
  },
  {
    "nameZh": "青衣信義村公廁",
    "nameEn": "",
    "districtZh": "青衣",
    "districtEn": "",
    "addressZh": "青衣楓樹窩路信義村",
    "addressEn": "",
    "latitude": 22.3426786,
    "longitude": 114.1061929,
    "openingHours": "24 小時開放的公廁",
    "accessible": false,
    "babyCare": false,
    "cleanlinessScore": 3,
    "tags": [],
    "sourceId": 152
  },
  {
    "nameZh": "青衣擔杆山路公廁",
    "nameEn": "",
    "districtZh": "青衣",
    "districtEn": "",
    "addressZh": "青衣擔杆山路89號",
    "addressEn": "",
    "latitude": 22.3615737,
    "longitude": 114.0893652,
    "openingHours": "24 小時開放的公廁",
    "accessible": false,
    "babyCare": false,
    "cleanlinessScore": 3,
    "tags": [],
    "sourceId": 145
  },
  {
    "nameZh": "青衣新公眾碼頭公廁",
    "nameEn": "",
    "districtZh": "青衣",
    "districtEn": "",
    "addressZh": "青衣楓樹窩路新公眾碼頭",
    "addressEn": "",
    "latitude": 22.348498,
    "longitude": 114.097207,
    "openingHours": "24 小時開放的公廁",
    "accessible": false,
    "babyCare": false,
    "cleanlinessScore": 3,
    "tags": [],
    "sourceId": 144
  },
  {
    "nameZh": "青衣長青巴士總站公廁",
    "nameEn": "",
    "districtZh": "青衣",
    "districtEn": "",
    "addressZh": "青衣長青青康路巴士總站",
    "addressEn": "",
    "latitude": 22.348498,
    "longitude": 114.097207,
    "openingHours": "24 小時開放的公廁",
    "accessible": false,
    "babyCare": false,
    "cleanlinessScore": 3,
    "tags": [],
    "sourceId": 143
  },
  {
    "nameZh": "青衣長輝路海濱花園公廁",
    "nameEn": "",
    "districtZh": "青衣",
    "districtEn": "",
    "addressZh": "青衣長輝路海濱花園",
    "addressEn": "",
    "latitude": 22.348498,
    "longitude": 114.097207,
    "openingHours": "24 小時開放的公廁",
    "accessible": false,
    "babyCare": false,
    "cleanlinessScore": 3,
    "tags": [],
    "sourceId": 142
  },
  {
    "nameZh": "青衣長達路公廁",
    "nameEn": "",
    "districtZh": "青衣",
    "districtEn": "",
    "addressZh": "青衣長達路28號",
    "addressEn": "",
    "latitude": 22.3510208,
    "longitude": 114.108616,
    "openingHours": "24 小時開放的公廁",
    "accessible": false,
    "babyCare": false,
    "cleanlinessScore": 3,
    "tags": [],
    "sourceId": 141
  },
  {
    "nameZh": "青衣西北交匯處公廁",
    "nameEn": "",
    "districtZh": "青衣",
    "districtEn": "",
    "addressZh": "青衣西北交匯處青嶼幹線觀景台停車場",
    "addressEn": "",
    "latitude": 22.3527331,
    "longitude": 114.0860056,
    "openingHours": "24 小時開放的公廁",
    "accessible": false,
    "babyCare": false,
    "cleanlinessScore": 3,
    "tags": [],
    "sourceId": 136
  },
  {
    "nameZh": "青衣寮肚村公廁",
    "nameEn": "",
    "districtZh": "青衣",
    "districtEn": "",
    "addressZh": "青衣青衣西路寮肚村",
    "addressEn": "",
    "latitude": 22.3498814,
    "longitude": 114.0984373,
    "openingHours": "24 小時開放的公廁",
    "accessible": false,
    "babyCare": false,
    "cleanlinessScore": 3,
    "tags": [],
    "sourceId": 135
  },
  {
    "nameZh": "粉嶺永寧圍公廁",
    "nameEn": "",
    "districtZh": "粉嶺",
    "districtEn": "",
    "addressZh": "粉嶺萃雲路永寧圍32號",
    "addressEn": "",
    "latitude": 22.4987221,
    "longitude": 114.1463267,
    "openingHours": "24 小時開放的公廁",
    "accessible": false,
    "babyCare": false,
    "cleanlinessScore": 3,
    "tags": [],
    "sourceId": 242
  },
  {
    "nameZh": "粉嶺和興村停車場公廁",
    "nameEn": "",
    "districtZh": "粉嶺",
    "districtEn": "",
    "addressZh": "粉嶺和興路和興村停車場",
    "addressEn": "",
    "latitude": 22.486222,
    "longitude": 114.1445311,
    "openingHours": "24 小時開放的公廁",
    "accessible": false,
    "babyCare": false,
    "cleanlinessScore": 3,
    "tags": [],
    "sourceId": 241
  },
  {
    "nameZh": "粉嶺和興路和合石村公廁",
    "nameEn": "",
    "districtZh": "粉嶺",
    "districtEn": "",
    "addressZh": "粉嶺和興路和合石村",
    "addressEn": "",
    "latitude": 22.4986253,
    "longitude": 114.140322,
    "openingHours": "24 小時開放的公廁",
    "accessible": false,
    "babyCare": false,
    "cleanlinessScore": 3,
    "tags": [],
    "sourceId": 240
  },
  {
    "nameZh": "粉嶺禾徑山路公廁",
    "nameEn": "",
    "districtZh": "粉嶺",
    "districtEn": "",
    "addressZh": "粉嶺禾徑山路",
    "addressEn": "",
    "latitude": 22.500525,
    "longitude": 114.1370806,
    "openingHours": "24 小時開放的公廁",
    "accessible": false,
    "babyCare": false,
    "cleanlinessScore": 3,
    "tags": [],
    "sourceId": 239
  },
  {
    "nameZh": "打鼓嶺元下村公廁",
    "nameEn": "",
    "districtZh": "粉嶺",
    "districtEn": "",
    "addressZh": "打鼓嶺元下村",
    "addressEn": "",
    "latitude": 22.5289551,
    "longitude": 114.156166,
    "openingHours": "24 小時開放的公廁",
    "accessible": false,
    "babyCare": false,
    "cleanlinessScore": 3,
    "tags": [],
    "sourceId": 234
  },
  {
    "nameZh": "粉嶺東閣圍公廁",
    "nameEn": "",
    "districtZh": "粉嶺",
    "districtEn": "",
    "addressZh": "粉嶺東閣圍101號",
    "addressEn": "",
    "latitude": 22.4857758,
    "longitude": 114.1420282,
    "openingHours": "24 小時開放的公廁",
    "accessible": false,
    "babyCare": false,
    "cleanlinessScore": 3,
    "tags": [],
    "sourceId": 228
  },
  {
    "nameZh": "粉嶺樂東街崇謙堂公廁",
    "nameEn": "",
    "districtZh": "粉嶺",
    "districtEn": "",
    "addressZh": "粉嶺樂東街崇謙堂村村口",
    "addressEn": "",
    "latitude": 22.4979484,
    "longitude": 114.1454546,
    "openingHours": "24 小時開放的公廁",
    "accessible": false,
    "babyCare": false,
    "cleanlinessScore": 3,
    "tags": [],
    "sourceId": 222
  },
  {
    "nameZh": "粉嶺小坑新村公廁",
    "nameEn": "",
    "districtZh": "粉嶺",
    "districtEn": "",
    "addressZh": "粉嶺小坑新村",
    "addressEn": "",
    "latitude": 22.5001175,
    "longitude": 114.1445884,
    "openingHours": "24 小時開放的公廁",
    "accessible": false,
    "babyCare": false,
    "cleanlinessScore": 3,
    "tags": [],
    "sourceId": 221
  },
  {
    "nameZh": "粉嶺丹竹坑公廁",
    "nameEn": "",
    "districtZh": "粉嶺",
    "districtEn": "",
    "addressZh": "粉嶺丹竹坑",
    "addressEn": "",
    "latitude": 22.4946255,
    "longitude": 114.1382744,
    "openingHours": "24 小時開放的公廁",
    "accessible": false,
    "babyCare": false,
    "cleanlinessScore": 3,
    "tags": [],
    "sourceId": 218
  },
  {
    "nameZh": "粉嶺塘坑村公廁",
    "nameEn": "",
    "districtZh": "粉嶺",
    "districtEn": "",
    "addressZh": "粉嶺塘坑村",
    "addressEn": "",
    "latitude": 22.4161181,
    "longitude": 114.0431312,
    "openingHours": "24 小時開放的公廁",
    "accessible": false,
    "babyCare": false,
    "cleanlinessScore": 3,
    "tags": [],
    "sourceId": 217
  },
  {
    "nameZh": "粉嶺丙崗村公廁",
    "nameEn": "",
    "districtZh": "粉嶺",
    "districtEn": "",
    "addressZh": "粉嶺丙崗路丙崗村",
    "addressEn": "",
    "latitude": 22.4960806,
    "longitude": 114.1205039,
    "openingHours": "24 小時開放的公廁",
    "accessible": false,
    "babyCare": false,
    "cleanlinessScore": 3,
    "tags": [],
    "sourceId": 211
  },
  {
    "nameZh": "粉嶺流水響公廁",
    "nameEn": "",
    "districtZh": "粉嶺",
    "districtEn": "",
    "addressZh": "粉嶺布格仔路流水響",
    "addressEn": "",
    "latitude": 22.4946255,
    "longitude": 114.1382744,
    "openingHours": "24 小時開放的公廁",
    "accessible": false,
    "babyCare": false,
    "cleanlinessScore": 3,
    "tags": [],
    "sourceId": 210
  },
  {
    "nameZh": "粉嶺皇后山公廁",
    "nameEn": "",
    "districtZh": "粉嶺",
    "districtEn": "",
    "addressZh": "粉嶺沙頭角公路龍躍頭段皇后山",
    "addressEn": "",
    "latitude": 22.4946255,
    "longitude": 114.1382744,
    "openingHours": "24 小時開放的公廁",
    "accessible": false,
    "babyCare": false,
    "cleanlinessScore": 3,
    "tags": [],
    "sourceId": 209
  },
  {
    "nameZh": "粉嶺麻笏村公廁",
    "nameEn": "",
    "districtZh": "粉嶺",
    "districtEn": "",
    "addressZh": "粉嶺麻笏村",
    "addressEn": "",
    "latitude": 22.4987221,
    "longitude": 114.1463267,
    "openingHours": "24 小時開放的公廁",
    "accessible": false,
    "babyCare": false,
    "cleanlinessScore": 3,
    "tags": [],
    "sourceId": 205
  },
  {
    "nameZh": "粉嶺嶺仔村公廁",
    "nameEn": "",
    "districtZh": "粉嶺",
    "districtEn": "",
    "addressZh": "粉嶺嶺仔村",
    "addressEn": "",
    "latitude": 22.4960806,
    "longitude": 114.1205039,
    "openingHours": "24 小時開放的公廁",
    "accessible": false,
    "babyCare": false,
    "cleanlinessScore": 3,
    "tags": [],
    "sourceId": 198
  },
  {
    "nameZh": "荃灣西樓角路荃灣多層停車場大廈公廁",
    "nameEn": "",
    "districtZh": "荃灣",
    "districtEn": "",
    "addressZh": "荃灣西樓角路荃灣多層停車場大廈地下",
    "addressEn": "",
    "latitude": 22.3716605,
    "longitude": 114.1134699,
    "openingHours": "24 小時開放的公廁",
    "accessible": false,
    "babyCare": false,
    "cleanlinessScore": 3,
    "tags": [],
    "sourceId": 483
  },
  {
    "nameZh": "橫龍街馬角街熟食檔公廁",
    "nameEn": "",
    "districtZh": "荃灣",
    "districtEn": "",
    "addressZh": "橫龍街馬角街熟食檔",
    "addressEn": "",
    "latitude": 22.3716605,
    "longitude": 114.1134699,
    "openingHours": "24 小時開放的公廁",
    "accessible": false,
    "babyCare": false,
    "cleanlinessScore": 3,
    "tags": [],
    "sourceId": 482
  },
  {
    "nameZh": "荃灣和宜合村公廁",
    "nameEn": "",
    "districtZh": "荃灣",
    "districtEn": "",
    "addressZh": "荃灣城門道和宜合村",
    "addressEn": "",
    "latitude": 22.375363,
    "longitude": 114.1369554,
    "openingHours": "24 小時開放的公廁",
    "accessible": false,
    "babyCare": false,
    "cleanlinessScore": 3,
    "tags": [],
    "sourceId": 481
  },
  {
    "nameZh": "荃灣二陂圳村公廁",
    "nameEn": "",
    "districtZh": "荃灣",
    "districtEn": "",
    "addressZh": "荃灣二陂圳村34號",
    "addressEn": "",
    "latitude": 22.3716605,
    "longitude": 114.1134699,
    "openingHours": "24 小時開放的公廁",
    "accessible": false,
    "babyCare": false,
    "cleanlinessScore": 3,
    "tags": [],
    "sourceId": 480
  },
  {
    "nameZh": "荃灣上葵涌村公廁",
    "nameEn": "",
    "districtZh": "荃灣",
    "districtEn": "",
    "addressZh": "荃灣上葵涌路上葵涌村",
    "addressEn": "",
    "latitude": 22.3782452,
    "longitude": 114.1365335,
    "openingHours": "24 小時開放的公廁",
    "accessible": false,
    "babyCare": false,
    "cleanlinessScore": 3,
    "tags": [],
    "sourceId": 478
  },
  {
    "nameZh": "荃灣城門道公廁",
    "nameEn": "",
    "districtZh": "荃灣",
    "districtEn": "",
    "addressZh": "荃灣城門道",
    "addressEn": "",
    "latitude": 22.3685852,
    "longitude": 114.1221767,
    "openingHours": "24 小時開放的公廁",
    "accessible": false,
    "babyCare": false,
    "cleanlinessScore": 3,
    "tags": [],
    "sourceId": 477
  },
  {
    "nameZh": "荃灣大河道荃灣西鐵站公廁",
    "nameEn": "",
    "districtZh": "荃灣",
    "districtEn": "",
    "addressZh": "荃灣大河道荃灣西鐵站",
    "addressEn": "",
    "latitude": 22.3716605,
    "longitude": 114.1134699,
    "openingHours": "24 小時開放的公廁",
    "accessible": false,
    "babyCare": false,
    "cleanlinessScore": 3,
    "tags": [],
    "sourceId": 474
  },
  {
    "nameZh": "荃灣德華公園公廁",
    "nameEn": "",
    "districtZh": "荃灣",
    "districtEn": "",
    "addressZh": "荃灣荃灣街市街67-95號德華公園",
    "addressEn": "",
    "latitude": 22.3716605,
    "longitude": 114.1134699,
    "openingHours": "24 小時開放的公廁",
    "accessible": false,
    "babyCare": false,
    "cleanlinessScore": 3,
    "tags": [],
    "sourceId": 473
  },
  {
    "nameZh": "荃灣汀九村公廁",
    "nameEn": "",
    "districtZh": "荃灣",
    "districtEn": "",
    "addressZh": "荃灣青山公路汀九段汀九村",
    "addressEn": "",
    "latitude": 22.3802661,
    "longitude": 114.0944411,
    "openingHours": "24 小時開放的公廁",
    "accessible": false,
    "babyCare": false,
    "cleanlinessScore": 3,
    "tags": [],
    "sourceId": 472
  },
  {
    "nameZh": "荃灣青龍頭村公廁",
    "nameEn": "",
    "districtZh": "荃灣",
    "districtEn": "",
    "addressZh": "青山公路青龍頭段青龍頭村",
    "addressEn": "",
    "latitude": 22.3614846,
    "longitude": 114.042907,
    "openingHours": "24 小時開放的公廁",
    "accessible": false,
    "babyCare": false,
    "cleanlinessScore": 3,
    "tags": [],
    "sourceId": 471
  },
  {
    "nameZh": "荃灣老圍路公廁",
    "nameEn": "",
    "districtZh": "荃灣",
    "districtEn": "",
    "addressZh": "荃灣老圍路",
    "addressEn": "",
    "latitude": 22.3619013,
    "longitude": 114.1273998,
    "openingHours": "24 小時開放的公廁",
    "accessible": false,
    "babyCare": false,
    "cleanlinessScore": 3,
    "tags": [],
    "sourceId": 470
  },
  {
    "nameZh": "荃灣同和街老圍公廁",
    "nameEn": "",
    "districtZh": "荃灣",
    "districtEn": "",
    "addressZh": "荃灣同和街老圍",
    "addressEn": "",
    "latitude": 22.3716605,
    "longitude": 114.1134699,
    "openingHours": "24 小時開放的公廁",
    "accessible": false,
    "babyCare": false,
    "cleanlinessScore": 3,
    "tags": [],
    "sourceId": 469
  },
  {
    "nameZh": "青龍頭龍如路圓墩村公廁",
    "nameEn": "",
    "districtZh": "荃灣",
    "districtEn": "",
    "addressZh": "青龍頭龍如路圓墩村",
    "addressEn": "",
    "latitude": 22.3630467,
    "longitude": 114.0457096,
    "openingHours": "24 小時開放的公廁",
    "accessible": false,
    "babyCare": false,
    "cleanlinessScore": 3,
    "tags": [],
    "sourceId": 468
  },
  {
    "nameZh": "荃灣排棉角村公廁",
    "nameEn": "",
    "districtZh": "荃灣",
    "districtEn": "",
    "addressZh": "荃灣青山公路青龍頭段排棉角村",
    "addressEn": "",
    "latitude": 22.3655391,
    "longitude": 114.0565212,
    "openingHours": "24 小時開放的公廁",
    "accessible": false,
    "babyCare": false,
    "cleanlinessScore": 3,
    "tags": [],
    "sourceId": 467
  },
  {
    "nameZh": "荃灣白田壩新村公廁",
    "nameEn": "",
    "districtZh": "荃灣",
    "districtEn": "",
    "addressZh": "荃灣照潭徑白田壩新村",
    "addressEn": "",
    "latitude": 22.3793365,
    "longitude": 114.1100785,
    "openingHours": "24 小時開放的公廁",
    "accessible": false,
    "babyCare": false,
    "cleanlinessScore": 3,
    "tags": [],
    "sourceId": 466
  },
  {
    "nameZh": "深井清快塘新村公廁",
    "nameEn": "",
    "districtZh": "深井",
    "districtEn": "",
    "addressZh": "深井清快塘新村",
    "addressEn": "",
    "latitude": 22.3658944,
    "longitude": 114.0636956,
    "openingHours": "24 小時開放的公廁",
    "accessible": false,
    "babyCare": false,
    "cleanlinessScore": 3,
    "tags": [],
    "sourceId": 479
  },
  {
    "nameZh": "深井舒安台公廁",
    "nameEn": "",
    "districtZh": "深井",
    "districtEn": "",
    "addressZh": "深井舒安台",
    "addressEn": "",
    "latitude": 22.3678893,
    "longitude": 114.0609808,
    "openingHours": "24 小時開放的公廁",
    "accessible": false,
    "babyCare": false,
    "cleanlinessScore": 3,
    "tags": [],
    "sourceId": 476
  },
  {
    "nameZh": "深井深井商業新村公廁",
    "nameEn": "",
    "districtZh": "深井",
    "districtEn": "",
    "addressZh": "深井深康路深井商業新村",
    "addressEn": "",
    "latitude": 22.3987869,
    "longitude": 113.9769995,
    "openingHours": "24 小時開放的公廁",
    "accessible": false,
    "babyCare": false,
    "cleanlinessScore": 3,
    "tags": [],
    "sourceId": 464
  },
  {
    "nameZh": "深井深井東村公廁",
    "nameEn": "",
    "districtZh": "深井",
    "districtEn": "",
    "addressZh": "深井深井東村",
    "addressEn": "",
    "latitude": 22.5627159,
    "longitude": 114.0304822,
    "openingHours": "24 小時開放的公廁",
    "accessible": false,
    "babyCare": false,
    "cleanlinessScore": 3,
    "tags": [],
    "sourceId": 463
  },
  {
    "nameZh": "深井深井村路公廁",
    "nameEn": "",
    "districtZh": "深井",
    "districtEn": "",
    "addressZh": "深井深井村路深井大街垃圾站",
    "addressEn": "",
    "latitude": 22.3678893,
    "longitude": 114.0609808,
    "openingHours": "24 小時開放的公廁",
    "accessible": false,
    "babyCare": false,
    "cleanlinessScore": 3,
    "tags": [],
    "sourceId": 462
  },
  {
    "nameZh": "公廁",
    "nameEn": "",
    "districtZh": "葵芳",
    "districtEn": "",
    "addressZh": "葵芳新葵街",
    "addressEn": "",
    "latitude": 22.3422037,
    "longitude": 114.1319811,
    "openingHours": "24 小時開放的公廁",
    "accessible": false,
    "babyCare": false,
    "cleanlinessScore": 3,
    "tags": [],
    "sourceId": 151
  },
  {
    "nameZh": "葵芳港鐵站巴士總站公廁",
    "nameEn": "",
    "districtZh": "葵芳",
    "districtEn": "",
    "addressZh": "葵芳港鐵站巴士總站",
    "addressEn": "",
    "latitude": 22.3568319,
    "longitude": 114.1277957,
    "openingHours": "24 小時開放的公廁",
    "accessible": false,
    "babyCare": false,
    "cleanlinessScore": 3,
    "tags": [],
    "sourceId": 139
  },
  {
    "nameZh": "葵涌上一村休憩處公廁",
    "nameEn": "",
    "districtZh": "葵涌",
    "districtEn": "",
    "addressZh": "葵涌上一村休憩處",
    "addressEn": "",
    "latitude": 22.3609551,
    "longitude": 114.1290095,
    "openingHours": "24 小時開放的公廁",
    "accessible": false,
    "babyCare": false,
    "cleanlinessScore": 3,
    "tags": [],
    "sourceId": 150
  },